{"type":"FeatureCollection","features":[{"type":"Feature","id":1,"geometry":{"type":"Point","coordinates":[-79.866919999999936,43.541960000000074]},"properties":{"OBJECTID":1,"stop_id":"MI2001","stop_name":"Milton Crossroads at Walmart","stop_lat":43.541960000000003,"stop_lon":-79.866919999999993,"wheelchair_boarding":0,"stop_code":2001}},{"type":"Feature","id":2,"geometry":{"type":"Point","coordinates":[-79.869179999999972,43.542310000000043]},"properties":{"OBJECTID":2,"stop_id":"MI2002","stop_name":"Milton Crossroads at Royal Bank","stop_lat":43.542310000000001,"stop_lon":-79.86918,"wheelchair_boarding":0,"stop_code":2002}},{"type":"Feature","id":3,"geometry":{"type":"Point","coordinates":[-79.874879999999962,43.540570000000059]},"properties":{"OBJECTID":3,"stop_id":"MI2003","stop_name":"Steeles at Esquesing","stop_lat":43.540570000000002,"stop_lon":-79.874880000000005,"wheelchair_boarding":0,"stop_code":2003}},{"type":"Feature","id":4,"geometry":{"type":"Point","coordinates":[-79.874889999999937,43.53490000000005]},"properties":{"OBJECTID":4,"stop_id":"MI2004","stop_name":"Maple at Thompson","stop_lat":43.5349,"stop_lon":-79.874889999999994,"wheelchair_boarding":0,"stop_code":2004}},{"type":"Feature","id":5,"geometry":{"type":"Point","coordinates":[-79.873779999999954,43.535910000000058]},"properties":{"OBJECTID":5,"stop_id":"MI2005","stop_name":"Maple at Galbraith","stop_lat":43.535910000000001,"stop_lon":-79.873779999999996,"wheelchair_boarding":0,"stop_code":2005}},{"type":"Feature","id":6,"geometry":{"type":"Point","coordinates":[-79.870999999999981,43.537340000000029]},"properties":{"OBJECTID":6,"stop_id":"MI2006","stop_name":"Maple at Charlton","stop_lat":43.53734,"stop_lon":-79.870999999999995,"wheelchair_boarding":0,"stop_code":2006}},{"type":"Feature","id":7,"geometry":{"type":"Point","coordinates":[-79.86896999999999,43.53768000000008]},"properties":{"OBJECTID":7,"stop_id":"MI2007","stop_name":"Maple at Norrington","stop_lat":43.537680000000002,"stop_lon":-79.868970000000004,"wheelchair_boarding":0,"stop_code":2007}},{"type":"Feature","id":8,"geometry":{"type":"Point","coordinates":[-79.866659999999968,43.53857000000005]},"properties":{"OBJECTID":8,"stop_id":"MI2008","stop_name":"Maple at Fox","stop_lat":43.53857,"stop_lon":-79.866659999999996,"wheelchair_boarding":0,"stop_code":2008}},{"type":"Feature","id":9,"geometry":{"type":"Point","coordinates":[-79.864569999999958,43.538710000000037]},"properties":{"OBJECTID":9,"stop_id":"MI2009","stop_name":"Maple across Roper","stop_lat":43.538710000000002,"stop_lon":-79.864570000000001,"wheelchair_boarding":0,"stop_code":2009}},{"type":"Feature","id":10,"geometry":{"type":"Point","coordinates":[-79.862769999999955,43.538130000000081]},"properties":{"OBJECTID":10,"stop_id":"MI2010","stop_name":"Maple at Book","stop_lat":43.538130000000002,"stop_lon":-79.862769999999998,"wheelchair_boarding":0,"stop_code":2010}},{"type":"Feature","id":11,"geometry":{"type":"Point","coordinates":[-79.860419999999976,43.536980000000028]},"properties":{"OBJECTID":11,"stop_id":"MI2011","stop_name":"Maple at Babcock","stop_lat":43.53698,"stop_lon":-79.860420000000005,"wheelchair_boarding":0,"stop_code":2011}},{"type":"Feature","id":12,"geometry":{"type":"Point","coordinates":[-79.858899999999949,43.536090000000058]},"properties":{"OBJECTID":12,"stop_id":"MI2012","stop_name":"Maple at Main","stop_lat":43.536090000000002,"stop_lon":-79.858900000000006,"wheelchair_boarding":0,"stop_code":2012}},{"type":"Feature","id":13,"geometry":{"type":"Point","coordinates":[-79.860179999999957,43.534550000000081]},"properties":{"OBJECTID":13,"stop_id":"MI2013","stop_name":"1431 Main","stop_lat":43.534550000000003,"stop_lon":-79.86018,"wheelchair_boarding":0,"stop_code":2013}},{"type":"Feature","id":14,"geometry":{"type":"Point","coordinates":[-79.862219999999979,43.532700000000034]},"properties":{"OBJECTID":14,"stop_id":"MI2014","stop_name":"Main at Pearson","stop_lat":43.532699999999998,"stop_lon":-79.862219999999994,"wheelchair_boarding":0,"stop_code":2014}},{"type":"Feature","id":15,"geometry":{"type":"Point","coordinates":[-79.864439999999945,43.530680000000075]},"properties":{"OBJECTID":15,"stop_id":"MI2015","stop_name":"Main at Robarts","stop_lat":43.530679999999997,"stop_lon":-79.864440000000002,"wheelchair_boarding":0,"stop_code":2015}},{"type":"Feature","id":16,"geometry":{"type":"Point","coordinates":[-79.866759999999942,43.528530000000046]},"properties":{"OBJECTID":16,"stop_id":"MI2016","stop_name":"Main at Thompson","stop_lat":43.528530000000003,"stop_lon":-79.866759999999999,"wheelchair_boarding":0,"stop_code":2016}},{"type":"Feature","id":17,"geometry":{"type":"Point","coordinates":[-79.878219999999942,43.517910000000029]},"properties":{"OBJECTID":17,"stop_id":"MI2022","stop_name":"Main at Ontario","stop_lat":43.517910000000001,"stop_lon":-79.878219999999999,"wheelchair_boarding":0,"stop_code":2022}},{"type":"Feature","id":18,"geometry":{"type":"Point","coordinates":[-79.879969999999958,43.516220000000033]},"properties":{"OBJECTID":18,"stop_id":"MI2023","stop_name":"Main at Court","stop_lat":43.516219999999997,"stop_lon":-79.87997,"wheelchair_boarding":0,"stop_code":2023}},{"type":"Feature","id":19,"geometry":{"type":"Point","coordinates":[-79.880759999999952,43.515500000000031]},"properties":{"OBJECTID":19,"stop_id":"MI2024","stop_name":"Main at Millside","stop_lat":43.515500000000003,"stop_lon":-79.880759999999995,"wheelchair_boarding":0,"stop_code":2024}},{"type":"Feature","id":20,"geometry":{"type":"Point","coordinates":[-79.883609999999976,43.515690000000063]},"properties":{"OBJECTID":20,"stop_id":"MI2025","stop_name":"Millside at Martin","stop_lat":43.515689999999999,"stop_lon":-79.883610000000004,"wheelchair_boarding":0,"stop_code":2025}},{"type":"Feature","id":21,"geometry":{"type":"Point","coordinates":[-79.883879999999976,43.51413000000008]},"properties":{"OBJECTID":21,"stop_id":"MI2026","stop_name":"Martin at Mill","stop_lat":43.514130000000002,"stop_lon":-79.883880000000005,"wheelchair_boarding":0,"stop_code":2026}},{"type":"Feature","id":22,"geometry":{"type":"Point","coordinates":[-79.885279999999966,43.51275000000004]},"properties":{"OBJECTID":22,"stop_id":"MI2027","stop_name":"Mill at Rotary","stop_lat":43.512749999999997,"stop_lon":-79.885279999999995,"wheelchair_boarding":0,"stop_code":2027}},{"type":"Feature","id":23,"geometry":{"type":"Point","coordinates":[-79.88692999999995,43.509920000000079]},"properties":{"OBJECTID":23,"stop_id":"MI2028","stop_name":"Elizabeth at Main","stop_lat":43.509920000000001,"stop_lon":-79.886930000000007,"wheelchair_boarding":0,"stop_code":2028}},{"type":"Feature","id":24,"geometry":{"type":"Point","coordinates":[-79.887769999999989,43.509160000000065]},"properties":{"OBJECTID":24,"stop_id":"MI2029","stop_name":"Main at Bronte","stop_lat":43.509160000000001,"stop_lon":-79.887770000000003,"wheelchair_boarding":0,"stop_code":2029}},{"type":"Feature","id":25,"geometry":{"type":"Point","coordinates":[-79.886899999999969,43.507570000000044]},"properties":{"OBJECTID":25,"stop_id":"MI2030","stop_name":"Bronte across Mary","stop_lat":43.507570000000001,"stop_lon":-79.886899999999997,"wheelchair_boarding":0,"stop_code":2030}},{"type":"Feature","id":26,"geometry":{"type":"Point","coordinates":[-79.88465999999994,43.505910000000029]},"properties":{"OBJECTID":26,"stop_id":"MI2031","stop_name":"Bronte across John","stop_lat":43.50591,"stop_lon":-79.884659999999997,"wheelchair_boarding":0,"stop_code":2031}},{"type":"Feature","id":27,"geometry":{"type":"Point","coordinates":[-79.882169999999974,43.504050000000063]},"properties":{"OBJECTID":27,"stop_id":"MI2032","stop_name":"Bronte at Dawson","stop_lat":43.504049999999999,"stop_lon":-79.882170000000002,"wheelchair_boarding":0,"stop_code":2032}},{"type":"Feature","id":28,"geometry":{"type":"Point","coordinates":[-79.880469999999946,43.50276000000008]},"properties":{"OBJECTID":28,"stop_id":"MI2033","stop_name":"Bronte across Heslop","stop_lat":43.502760000000002,"stop_lon":-79.880470000000003,"wheelchair_boarding":0,"stop_code":2033}},{"type":"Feature","id":29,"geometry":{"type":"Point","coordinates":[-79.878709999999955,43.50147000000004]},"properties":{"OBJECTID":29,"stop_id":"MI2034","stop_name":"Bronte across Anne","stop_lat":43.501469999999998,"stop_lon":-79.878709999999998,"wheelchair_boarding":0,"stop_code":2034}},{"type":"Feature","id":30,"geometry":{"type":"Point","coordinates":[-79.877109999999959,43.500260000000026]},"properties":{"OBJECTID":30,"stop_id":"MI2035","stop_name":"410 Bronte","stop_lat":43.500259999999997,"stop_lon":-79.877110000000002,"wheelchair_boarding":0,"stop_code":2035}},{"type":"Feature","id":31,"geometry":{"type":"Point","coordinates":[-79.875839999999982,43.499330000000043]},"properties":{"OBJECTID":31,"stop_id":"MI2036","stop_name":"Bronte across Laurier","stop_lat":43.49933,"stop_lon":-79.875839999999997,"wheelchair_boarding":0,"stop_code":2036}},{"type":"Feature","id":32,"geometry":{"type":"Point","coordinates":[-79.873219999999947,43.49735000000004]},"properties":{"OBJECTID":32,"stop_id":"MI2037","stop_name":"Derry at Milton Hospital","stop_lat":43.497349999999997,"stop_lon":-79.873220000000003,"wheelchair_boarding":0,"stop_code":2037}},{"type":"Feature","id":33,"geometry":{"type":"Point","coordinates":[-79.871179999999981,43.49726000000004]},"properties":{"OBJECTID":33,"stop_id":"MI2038","stop_name":"Milton District Hospital","stop_lat":43.497259999999997,"stop_lon":-79.871179999999995,"wheelchair_boarding":0,"stop_code":2038}},{"type":"Feature","id":34,"geometry":{"type":"Point","coordinates":[-79.868029999999976,43.500140000000044]},"properties":{"OBJECTID":34,"stop_id":"MI2039","stop_name":"Derry at Farmstead","stop_lat":43.500140000000002,"stop_lon":-79.868030000000005,"wheelchair_boarding":0,"stop_code":2039}},{"type":"Feature","id":35,"geometry":{"type":"Point","coordinates":[-79.865749999999935,43.50347000000005]},"properties":{"OBJECTID":35,"stop_id":"MI2040","stop_name":"Commercial at Derry","stop_lat":43.50347,"stop_lon":-79.865750000000006,"wheelchair_boarding":0,"stop_code":2040}},{"type":"Feature","id":36,"geometry":{"type":"Point","coordinates":[-79.867419999999981,43.505190000000027]},"properties":{"OBJECTID":36,"stop_id":"MI2041","stop_name":"Commercial at Laurier","stop_lat":43.505189999999999,"stop_lon":-79.867419999999996,"wheelchair_boarding":0,"stop_code":2041}},{"type":"Feature","id":37,"geometry":{"type":"Point","coordinates":[-79.869039999999984,43.507340000000056]},"properties":{"OBJECTID":37,"stop_id":"MI2042","stop_name":"Commercial across Williams","stop_lat":43.507339999999999,"stop_lon":-79.869039999999998,"wheelchair_boarding":0,"stop_code":2042}},{"type":"Feature","id":38,"geometry":{"type":"Point","coordinates":[-79.872319999999945,43.509230000000059]},"properties":{"OBJECTID":38,"stop_id":"MI2043","stop_name":"Commercial across Parkway","stop_lat":43.509230000000002,"stop_lon":-79.872320000000002,"wheelchair_boarding":0,"stop_code":2043}},{"type":"Feature","id":39,"geometry":{"type":"Point","coordinates":[-79.873789999999985,43.509760000000028]},"properties":{"OBJECTID":39,"stop_id":"MI2044","stop_name":"Commercial at Kingsway","stop_lat":43.50976,"stop_lon":-79.87379,"wheelchair_boarding":0,"stop_code":2044}},{"type":"Feature","id":40,"geometry":{"type":"Point","coordinates":[-79.875439999999969,43.508530000000064]},"properties":{"OBJECTID":40,"stop_id":"MI2045","stop_name":"Heslop at Thomas","stop_lat":43.50853,"stop_lon":-79.875439999999998,"wheelchair_boarding":0,"stop_code":2045}},{"type":"Feature","id":41,"geometry":{"type":"Point","coordinates":[-79.877119999999934,43.506970000000081]},"properties":{"OBJECTID":41,"stop_id":"MI2046","stop_name":"Heslop at Bell","stop_lat":43.506970000000003,"stop_lon":-79.877120000000005,"wheelchair_boarding":0,"stop_code":2046}},{"type":"Feature","id":42,"geometry":{"type":"Point","coordinates":[-79.878009999999961,43.505720000000053]},"properties":{"OBJECTID":42,"stop_id":"MI2047","stop_name":"Heslop at Elmwood","stop_lat":43.505719999999997,"stop_lon":-79.878010000000003,"wheelchair_boarding":0,"stop_code":2047}},{"type":"Feature","id":43,"geometry":{"type":"Point","coordinates":[-79.880329999999958,43.503720000000044]},"properties":{"OBJECTID":43,"stop_id":"MI2048","stop_name":"Heslop at Bronte","stop_lat":43.503720000000001,"stop_lon":-79.880330000000001,"wheelchair_boarding":0,"stop_code":2048}},{"type":"Feature","id":44,"geometry":{"type":"Point","coordinates":[-79.882219999999961,43.504290000000026]},"properties":{"OBJECTID":44,"stop_id":"MI2049","stop_name":"Bronte across Dawson","stop_lat":43.504289999999997,"stop_lon":-79.882220000000004,"wheelchair_boarding":0,"stop_code":2049}},{"type":"Feature","id":45,"geometry":{"type":"Point","coordinates":[-79.88454999999999,43.506030000000067]},"properties":{"OBJECTID":45,"stop_id":"MI2050","stop_name":"Bronte at John","stop_lat":43.506030000000003,"stop_lon":-79.884550000000004,"wheelchair_boarding":0,"stop_code":2050}},{"type":"Feature","id":46,"geometry":{"type":"Point","coordinates":[-79.886919999999975,43.507780000000025]},"properties":{"OBJECTID":46,"stop_id":"MI2051","stop_name":"Bronte at Mary","stop_lat":43.507779999999997,"stop_lon":-79.886920000000003,"wheelchair_boarding":0,"stop_code":2051}},{"type":"Feature","id":47,"geometry":{"type":"Point","coordinates":[-79.88752999999997,43.509000000000071]},"properties":{"OBJECTID":47,"stop_id":"MI2052","stop_name":"Main at Bronte","stop_lat":43.509,"stop_lon":-79.887529999999998,"wheelchair_boarding":0,"stop_code":2052}},{"type":"Feature","id":48,"geometry":{"type":"Point","coordinates":[-79.885299999999972,43.511050000000068]},"properties":{"OBJECTID":48,"stop_id":"MI2054","stop_name":"Main at Brown","stop_lat":43.511049999999997,"stop_lon":-79.885300000000001,"wheelchair_boarding":0,"stop_code":2054}},{"type":"Feature","id":49,"geometry":{"type":"Point","coordinates":[-79.883699999999976,43.514210000000048]},"properties":{"OBJECTID":49,"stop_id":"MI2055","stop_name":"Martin across Mill","stop_lat":43.514209999999999,"stop_lon":-79.883700000000005,"wheelchair_boarding":0,"stop_code":2055}},{"type":"Feature","id":50,"geometry":{"type":"Point","coordinates":[-79.882999999999981,43.515970000000038]},"properties":{"OBJECTID":50,"stop_id":"MI2056","stop_name":"84 Millside","stop_lat":43.515970000000003,"stop_lon":-79.882999999999996,"wheelchair_boarding":0,"stop_code":2056}},{"type":"Feature","id":51,"geometry":{"type":"Point","coordinates":[-79.88149999999996,43.515450000000044]},"properties":{"OBJECTID":51,"stop_id":"MI2057","stop_name":"Millside at Main","stop_lat":43.515450000000001,"stop_lon":-79.881500000000003,"wheelchair_boarding":0,"stop_code":2057}},{"type":"Feature","id":52,"geometry":{"type":"Point","coordinates":[-79.880039999999951,43.515960000000064]},"properties":{"OBJECTID":52,"stop_id":"MI2058","stop_name":"Main at Court","stop_lat":43.51596,"stop_lon":-79.880039999999994,"wheelchair_boarding":0,"stop_code":2058}},{"type":"Feature","id":53,"geometry":{"type":"Point","coordinates":[-79.877839999999935,43.517900000000054]},"properties":{"OBJECTID":53,"stop_id":"MI2059","stop_name":"Main at Ontario","stop_lat":43.517899999999997,"stop_lon":-79.877840000000006,"wheelchair_boarding":0,"stop_code":2059}},{"type":"Feature","id":54,"geometry":{"type":"Point","coordinates":[-79.86642999999998,43.528470000000027]},"properties":{"OBJECTID":54,"stop_id":"MI2063","stop_name":"Main at Thompson","stop_lat":43.528469999999999,"stop_lon":-79.866429999999994,"wheelchair_boarding":0,"stop_code":2063}},{"type":"Feature","id":55,"geometry":{"type":"Point","coordinates":[-79.864439999999945,43.530350000000055]},"properties":{"OBJECTID":55,"stop_id":"MI2064","stop_name":"Main across Robarts","stop_lat":43.530349999999999,"stop_lon":-79.864440000000002,"wheelchair_boarding":0,"stop_code":2064}},{"type":"Feature","id":56,"geometry":{"type":"Point","coordinates":[-79.862379999999973,43.532230000000027]},"properties":{"OBJECTID":56,"stop_id":"MI2065","stop_name":"Main at Harris","stop_lat":43.532229999999998,"stop_lon":-79.862380000000002,"wheelchair_boarding":0,"stop_code":2065}},{"type":"Feature","id":57,"geometry":{"type":"Point","coordinates":[-79.859999999999957,43.534360000000049]},"properties":{"OBJECTID":57,"stop_id":"MI2066","stop_name":"1274 Main","stop_lat":43.53436,"stop_lon":-79.859999999999999,"wheelchair_boarding":0,"stop_code":2066}},{"type":"Feature","id":58,"geometry":{"type":"Point","coordinates":[-79.858829999999955,43.536250000000052]},"properties":{"OBJECTID":58,"stop_id":"MI2067","stop_name":"Maple at Main","stop_lat":43.536250000000003,"stop_lon":-79.858829999999998,"wheelchair_boarding":0,"stop_code":2067}},{"type":"Feature","id":59,"geometry":{"type":"Point","coordinates":[-79.860279999999989,43.537110000000041]},"properties":{"OBJECTID":59,"stop_id":"MI2068","stop_name":"Maple across Turner","stop_lat":43.537109999999998,"stop_lon":-79.860280000000003,"wheelchair_boarding":0,"stop_code":2068}},{"type":"Feature","id":60,"geometry":{"type":"Point","coordinates":[-79.862299999999948,43.538110000000074]},"properties":{"OBJECTID":60,"stop_id":"MI2069","stop_name":"Maple across Book","stop_lat":43.538110000000003,"stop_lon":-79.862300000000005,"wheelchair_boarding":0,"stop_code":2069}},{"type":"Feature","id":61,"geometry":{"type":"Point","coordinates":[-79.864529999999945,43.538830000000075]},"properties":{"OBJECTID":61,"stop_id":"MI2070","stop_name":"Maple at Roper","stop_lat":43.538829999999997,"stop_lon":-79.864530000000002,"wheelchair_boarding":0,"stop_code":2070}},{"type":"Feature","id":62,"geometry":{"type":"Point","coordinates":[-79.867079999999987,43.538510000000031]},"properties":{"OBJECTID":62,"stop_id":"MI2071","stop_name":"Maple across Brush","stop_lat":43.538510000000002,"stop_lon":-79.867080000000001,"wheelchair_boarding":0,"stop_code":2071}},{"type":"Feature","id":63,"geometry":{"type":"Point","coordinates":[-79.869149999999934,43.537800000000061]},"properties":{"OBJECTID":63,"stop_id":"MI2072","stop_name":"Maple across Norrington","stop_lat":43.537799999999997,"stop_lon":-79.869150000000005,"wheelchair_boarding":0,"stop_code":2072}},{"type":"Feature","id":64,"geometry":{"type":"Point","coordinates":[-79.871139999999968,43.537480000000073]},"properties":{"OBJECTID":64,"stop_id":"MI2073","stop_name":"Maple across Charlton","stop_lat":43.537480000000002,"stop_lon":-79.871139999999997,"wheelchair_boarding":0,"stop_code":2073}},{"type":"Feature","id":65,"geometry":{"type":"Point","coordinates":[-79.873499999999979,43.536420000000078]},"properties":{"OBJECTID":65,"stop_id":"MI2074","stop_name":"Maple across Galbraith","stop_lat":43.53642,"stop_lon":-79.873500000000007,"wheelchair_boarding":0,"stop_code":2074}},{"type":"Feature","id":66,"geometry":{"type":"Point","coordinates":[-79.875299999999982,43.540090000000077]},"properties":{"OBJECTID":66,"stop_id":"MI2077","stop_name":"Steeles across Esquesing","stop_lat":43.540089999999999,"stop_lon":-79.875299999999996,"wheelchair_boarding":0,"stop_code":2077}},{"type":"Feature","id":67,"geometry":{"type":"Point","coordinates":[-79.869209999999953,43.541700000000048]},"properties":{"OBJECTID":67,"stop_id":"MI2078","stop_name":"Milton Crossroads at Montana's","stop_lat":43.541699999999999,"stop_lon":-79.869209999999995,"wheelchair_boarding":0,"stop_code":2078}},{"type":"Feature","id":68,"geometry":{"type":"Point","coordinates":[-79.866179999999986,43.524230000000045]},"properties":{"OBJECTID":68,"stop_id":"MI2123","stop_name":"Milton GO Station","stop_lat":43.524230000000003,"stop_lon":-79.86618,"wheelchair_boarding":0,"stop_code":2123}},{"type":"Feature","id":69,"geometry":{"type":"Point","coordinates":[-79.861489999999947,43.524020000000064]},"properties":{"OBJECTID":69,"stop_id":"MI2125","stop_name":"Thompson at Childs","stop_lat":43.52402,"stop_lon":-79.861490000000003,"wheelchair_boarding":0,"stop_code":2125}},{"type":"Feature","id":70,"geometry":{"type":"Point","coordinates":[-79.856889999999964,43.524170000000026]},"properties":{"OBJECTID":70,"stop_id":"MI2266","stop_name":"Mccuaig across Halm","stop_lat":43.524169999999998,"stop_lon":-79.856890000000007,"wheelchair_boarding":0,"stop_code":2266}},{"type":"Feature","id":71,"geometry":{"type":"Point","coordinates":[-79.854959999999949,43.525410000000079]},"properties":{"OBJECTID":71,"stop_id":"MI2267","stop_name":"Tupper at Little Crescent","stop_lat":43.525410000000001,"stop_lon":-79.854960000000005,"wheelchair_boarding":0,"stop_code":2267}},{"type":"Feature","id":72,"geometry":{"type":"Point","coordinates":[-79.852809999999977,43.523780000000045]},"properties":{"OBJECTID":72,"stop_id":"MI2268","stop_name":"Tupper at Laurier","stop_lat":43.523780000000002,"stop_lon":-79.852810000000005,"wheelchair_boarding":0,"stop_code":2268}},{"type":"Feature","id":73,"geometry":{"type":"Point","coordinates":[-79.850179999999966,43.522050000000036]},"properties":{"OBJECTID":73,"stop_id":"MI2269","stop_name":"Denves at Costigan","stop_lat":43.52205,"stop_lon":-79.850179999999995,"wheelchair_boarding":0,"stop_code":2269}},{"type":"Feature","id":74,"geometry":{"type":"Point","coordinates":[-79.848649999999964,43.523040000000037]},"properties":{"OBJECTID":74,"stop_id":"MI2270","stop_name":"Costigan at Miller","stop_lat":43.523040000000002,"stop_lon":-79.848650000000006,"wheelchair_boarding":0,"stop_code":2270}},{"type":"Feature","id":75,"geometry":{"type":"Point","coordinates":[-79.846569999999986,43.525180000000034]},"properties":{"OBJECTID":75,"stop_id":"MI2271","stop_name":"Costigan at Laking","stop_lat":43.525179999999999,"stop_lon":-79.84657,"wheelchair_boarding":0,"stop_code":2271}},{"type":"Feature","id":76,"geometry":{"type":"Point","coordinates":[-79.84788999999995,43.526550000000043]},"properties":{"OBJECTID":76,"stop_id":"MI2272","stop_name":"Costigan at Laurier","stop_lat":43.52655,"stop_lon":-79.847890000000007,"wheelchair_boarding":0,"stop_code":2272}},{"type":"Feature","id":77,"geometry":{"type":"Point","coordinates":[-79.848479999999938,43.527220000000057]},"properties":{"OBJECTID":77,"stop_id":"MI2273","stop_name":"Laurier at Costigan","stop_lat":43.52722,"stop_lon":-79.848479999999995,"wheelchair_boarding":0,"stop_code":2273}},{"type":"Feature","id":78,"geometry":{"type":"Point","coordinates":[-79.846499999999935,43.527720000000045]},"properties":{"OBJECTID":78,"stop_id":"MI2274","stop_name":"Laurier at Aylmer","stop_lat":43.527720000000002,"stop_lon":-79.846500000000006,"wheelchair_boarding":0,"stop_code":2274}},{"type":"Feature","id":79,"geometry":{"type":"Point","coordinates":[-79.844409999999982,43.528790000000072]},"properties":{"OBJECTID":79,"stop_id":"MI2275","stop_name":"Laurier at Cedar Hedge","stop_lat":43.528790000000001,"stop_lon":-79.844409999999996,"wheelchair_boarding":0,"stop_code":2275}},{"type":"Feature","id":80,"geometry":{"type":"Point","coordinates":[-79.842319999999972,43.53009000000003]},"properties":{"OBJECTID":80,"stop_id":"MI2276","stop_name":"Croft at Trudeau","stop_lat":43.530090000000001,"stop_lon":-79.842320000000001,"wheelchair_boarding":0,"stop_code":2276}},{"type":"Feature","id":81,"geometry":{"type":"Point","coordinates":[-79.839609999999936,43.529170000000079]},"properties":{"OBJECTID":81,"stop_id":"MI2277","stop_name":"Trudeau at Harwood","stop_lat":43.529170000000001,"stop_lon":-79.839609999999993,"wheelchair_boarding":0,"stop_code":2277}},{"type":"Feature","id":82,"geometry":{"type":"Point","coordinates":[-79.83842999999996,43.528210000000058]},"properties":{"OBJECTID":82,"stop_id":"MI2278","stop_name":"Trudeau at Derry","stop_lat":43.528210000000001,"stop_lon":-79.838430000000002,"wheelchair_boarding":0,"stop_code":2278}},{"type":"Feature","id":83,"geometry":{"type":"Point","coordinates":[-79.835469999999987,43.526410000000055]},"properties":{"OBJECTID":83,"stop_id":"MI2279","stop_name":"Trudeau at Beaty","stop_lat":43.526409999999998,"stop_lon":-79.835470000000001,"wheelchair_boarding":0,"stop_code":2279}},{"type":"Feature","id":84,"geometry":{"type":"Point","coordinates":[-79.833019999999976,43.523740000000032]},"properties":{"OBJECTID":84,"stop_id":"MI2280","stop_name":"Trudeau at Tuxford","stop_lat":43.523739999999997,"stop_lon":-79.833020000000005,"wheelchair_boarding":0,"stop_code":2280}},{"type":"Feature","id":85,"geometry":{"type":"Point","coordinates":[-79.830989999999986,43.522170000000074]},"properties":{"OBJECTID":85,"stop_id":"MI2281","stop_name":"Trudeau at Clark","stop_lat":43.522170000000003,"stop_lon":-79.83099,"wheelchair_boarding":0,"stop_code":2281}},{"type":"Feature","id":86,"geometry":{"type":"Point","coordinates":[-79.827799999999968,43.520920000000046]},"properties":{"OBJECTID":86,"stop_id":"MI2282","stop_name":"Trudeau at Jarvie","stop_lat":43.520919999999997,"stop_lon":-79.827799999999996,"wheelchair_boarding":0,"stop_code":2282}},{"type":"Feature","id":87,"geometry":{"type":"Point","coordinates":[-79.825839999999971,43.519510000000025]},"properties":{"OBJECTID":87,"stop_id":"MI2283","stop_name":"Trudeau at Earl","stop_lat":43.519509999999997,"stop_lon":-79.825839999999999,"wheelchair_boarding":0,"stop_code":2283}},{"type":"Feature","id":88,"geometry":{"type":"Point","coordinates":[-79.825069999999982,43.517840000000035]},"properties":{"OBJECTID":88,"stop_id":"MI2285","stop_name":"Louis St Laurent at Trudeau","stop_lat":43.51784,"stop_lon":-79.825069999999997,"wheelchair_boarding":0,"stop_code":2285}},{"type":"Feature","id":89,"geometry":{"type":"Point","coordinates":[-79.826639999999941,43.516400000000033]},"properties":{"OBJECTID":89,"stop_id":"MI2286","stop_name":"Louis St Laurent at Fourth Line","stop_lat":43.516399999999997,"stop_lon":-79.826639999999998,"wheelchair_boarding":0,"stop_code":2286}},{"type":"Feature","id":90,"geometry":{"type":"Point","coordinates":[-79.828529999999944,43.517390000000034]},"properties":{"OBJECTID":90,"stop_id":"MI2287","stop_name":"Fourth Line at Stewart","stop_lat":43.517389999999999,"stop_lon":-79.828530000000001,"wheelchair_boarding":0,"stop_code":2287}},{"type":"Feature","id":91,"geometry":{"type":"Point","coordinates":[-79.830829999999935,43.519040000000075]},"properties":{"OBJECTID":91,"stop_id":"MI2288","stop_name":"Beaty Library","stop_lat":43.519039999999997,"stop_lon":-79.830830000000006,"wheelchair_boarding":0,"stop_code":2288}},{"type":"Feature","id":92,"geometry":{"type":"Point","coordinates":[-79.832199999999943,43.520050000000026]},"properties":{"OBJECTID":92,"stop_id":"MI2289","stop_name":"Fourth Line at Clark","stop_lat":43.520049999999998,"stop_lon":-79.8322,"wheelchair_boarding":0,"stop_code":2289}},{"type":"Feature","id":93,"geometry":{"type":"Point","coordinates":[-79.830529999999953,43.521910000000048]},"properties":{"OBJECTID":93,"stop_id":"MI2290","stop_name":"Clark at Trudeau","stop_lat":43.521909999999998,"stop_lon":-79.830529999999996,"wheelchair_boarding":0,"stop_code":2290}},{"type":"Feature","id":94,"geometry":{"type":"Point","coordinates":[-79.832839999999976,43.523790000000076]},"properties":{"OBJECTID":94,"stop_id":"MI2291","stop_name":"Trudeau across Tuxford","stop_lat":43.523789999999998,"stop_lon":-79.832840000000004,"wheelchair_boarding":0,"stop_code":2291}},{"type":"Feature","id":95,"geometry":{"type":"Point","coordinates":[-79.835029999999961,43.526030000000048]},"properties":{"OBJECTID":95,"stop_id":"MI2292","stop_name":"Trudeau at Beaty","stop_lat":43.526029999999999,"stop_lon":-79.835030000000003,"wheelchair_boarding":0,"stop_code":2292}},{"type":"Feature","id":96,"geometry":{"type":"Point","coordinates":[-79.837599999999952,43.527990000000045]},"properties":{"OBJECTID":96,"stop_id":"MI2293","stop_name":"Trudeau at Derry","stop_lat":43.527990000000003,"stop_lon":-79.837599999999995,"wheelchair_boarding":0,"stop_code":2293}},{"type":"Feature","id":97,"geometry":{"type":"Point","coordinates":[-79.839279999999974,43.529100000000028]},"properties":{"OBJECTID":97,"stop_id":"MI2294","stop_name":"Trudeau at Kearns","stop_lat":43.5291,"stop_lon":-79.839280000000002,"wheelchair_boarding":0,"stop_code":2294}},{"type":"Feature","id":98,"geometry":{"type":"Point","coordinates":[-79.841139999999939,43.530990000000031]},"properties":{"OBJECTID":98,"stop_id":"MI2295","stop_name":"Trudeau at Waldie","stop_lat":43.530990000000003,"stop_lon":-79.841139999999996,"wheelchair_boarding":0,"stop_code":2295}},{"type":"Feature","id":99,"geometry":{"type":"Point","coordinates":[-79.842439999999954,43.530400000000043]},"properties":{"OBJECTID":99,"stop_id":"MI2296","stop_name":"Trudeau at Croft","stop_lat":43.5304,"stop_lon":-79.842439999999996,"wheelchair_boarding":0,"stop_code":2296}},{"type":"Feature","id":100,"geometry":{"type":"Point","coordinates":[-79.844259999999963,43.529140000000041]},"properties":{"OBJECTID":100,"stop_id":"MI2297","stop_name":"Croft at Cedar Hedge","stop_lat":43.529139999999998,"stop_lon":-79.844260000000006,"wheelchair_boarding":0,"stop_code":2297}},{"type":"Feature","id":101,"geometry":{"type":"Point","coordinates":[-79.846749999999986,43.527830000000051]},"properties":{"OBJECTID":101,"stop_id":"MI2298","stop_name":"1420 Laurier","stop_lat":43.527830000000002,"stop_lon":-79.84675,"wheelchair_boarding":0,"stop_code":2298}},{"type":"Feature","id":102,"geometry":{"type":"Point","coordinates":[-79.84899999999999,43.527080000000069]},"properties":{"OBJECTID":102,"stop_id":"MI2299","stop_name":"Laurier at Tupper","stop_lat":43.527079999999998,"stop_lon":-79.849000000000004,"wheelchair_boarding":0,"stop_code":2299}},{"type":"Feature","id":103,"geometry":{"type":"Point","coordinates":[-79.84672999999998,43.525140000000079]},"properties":{"OBJECTID":103,"stop_id":"MI2300","stop_name":"Costigan across Laking","stop_lat":43.52514,"stop_lon":-79.846729999999994,"wheelchair_boarding":0,"stop_code":2300}},{"type":"Feature","id":104,"geometry":{"type":"Point","coordinates":[-79.84848999999997,43.523380000000031]},"properties":{"OBJECTID":104,"stop_id":"MI2301","stop_name":"Costigan across Miller","stop_lat":43.523380000000003,"stop_lon":-79.848489999999998,"wheelchair_boarding":0,"stop_code":2301}},{"type":"Feature","id":105,"geometry":{"type":"Point","coordinates":[-79.849799999999959,43.52219000000008]},"properties":{"OBJECTID":105,"stop_id":"MI2302","stop_name":"Costigan at Denves","stop_lat":43.522190000000002,"stop_lon":-79.849800000000002,"wheelchair_boarding":0,"stop_code":2302}},{"type":"Feature","id":106,"geometry":{"type":"Point","coordinates":[-79.85233999999997,43.523620000000051]},"properties":{"OBJECTID":106,"stop_id":"MI2303","stop_name":"Denves at Laurier","stop_lat":43.523620000000001,"stop_lon":-79.852339999999998,"wheelchair_boarding":0,"stop_code":2303}},{"type":"Feature","id":107,"geometry":{"type":"Point","coordinates":[-79.855579999999975,43.525510000000054]},"properties":{"OBJECTID":107,"stop_id":"MI2304","stop_name":"Mccuaig at Tupper","stop_lat":43.525509999999997,"stop_lon":-79.855580000000003,"wheelchair_boarding":0,"stop_code":2304}},{"type":"Feature","id":108,"geometry":{"type":"Point","coordinates":[-79.856949999999983,43.524240000000077]},"properties":{"OBJECTID":108,"stop_id":"MI2305","stop_name":"Mccuaig at Halm","stop_lat":43.524239999999999,"stop_lon":-79.856949999999998,"wheelchair_boarding":0,"stop_code":2305}},{"type":"Feature","id":109,"geometry":{"type":"Point","coordinates":[-79.860719999999958,43.523710000000051]},"properties":{"OBJECTID":109,"stop_id":"MI2166","stop_name":"Thompson across Childs","stop_lat":43.523710000000001,"stop_lon":-79.860720000000001,"wheelchair_boarding":0,"stop_code":2166}},{"type":"Feature","id":110,"geometry":{"type":"Point","coordinates":[-79.864819999999952,43.525660000000073]},"properties":{"OBJECTID":110,"stop_id":"MI2167","stop_name":"Drew Centre at Thompson","stop_lat":43.525660000000002,"stop_lon":-79.864819999999995,"wheelchair_boarding":0,"stop_code":2167}},{"type":"Feature","id":111,"geometry":{"type":"Point","coordinates":[-79.866089999999986,43.524530000000027]},"properties":{"OBJECTID":111,"stop_id":"MI2168","stop_name":"Drew Centre at Milton GO Station","stop_lat":43.524529999999999,"stop_lon":-79.86609,"wheelchair_boarding":0,"stop_code":2168}},{"type":"Feature","id":112,"geometry":{"type":"Point","coordinates":[-79.859289999999987,43.52230000000003]},"properties":{"OBJECTID":112,"stop_id":"MI2126","stop_name":"Thompson across Mccuaig","stop_lat":43.522300000000001,"stop_lon":-79.859290000000001,"wheelchair_boarding":0,"stop_code":2126}},{"type":"Feature","id":113,"geometry":{"type":"Point","coordinates":[-79.856179999999938,43.520030000000077]},"properties":{"OBJECTID":113,"stop_id":"MI2127","stop_name":"Thompson at Laurier","stop_lat":43.520029999999998,"stop_lon":-79.856179999999995,"wheelchair_boarding":0,"stop_code":2127}},{"type":"Feature","id":114,"geometry":{"type":"Point","coordinates":[-79.853819999999985,43.518280000000061]},"properties":{"OBJECTID":114,"stop_id":"MI2128","stop_name":"Thompson across Costigan","stop_lat":43.518279999999997,"stop_lon":-79.853819999999999,"wheelchair_boarding":0,"stop_code":2128}},{"type":"Feature","id":115,"geometry":{"type":"Point","coordinates":[-79.851819999999975,43.516770000000065]},"properties":{"OBJECTID":115,"stop_id":"MI2129","stop_name":"Thompson at Derry","stop_lat":43.516770000000001,"stop_lon":-79.851820000000004,"wheelchair_boarding":0,"stop_code":2129}},{"type":"Feature","id":116,"geometry":{"type":"Point","coordinates":[-79.849679999999978,43.515210000000025]},"properties":{"OBJECTID":116,"stop_id":"MI2130","stop_name":"Thompson at Derry","stop_lat":43.515210000000003,"stop_lon":-79.849680000000006,"wheelchair_boarding":0,"stop_code":2130}},{"type":"Feature","id":117,"geometry":{"type":"Point","coordinates":[-79.847699999999975,43.51371000000006]},"properties":{"OBJECTID":117,"stop_id":"MI2131","stop_name":"Thompson at Yates","stop_lat":43.513710000000003,"stop_lon":-79.847700000000003,"wheelchair_boarding":0,"stop_code":2131}},{"type":"Feature","id":118,"geometry":{"type":"Point","coordinates":[-79.845659999999953,43.512230000000045]},"properties":{"OBJECTID":118,"stop_id":"MI2132","stop_name":"800 Thompson Road","stop_lat":43.512230000000002,"stop_lon":-79.845659999999995,"wheelchair_boarding":0,"stop_code":2132}},{"type":"Feature","id":119,"geometry":{"type":"Point","coordinates":[-79.843639999999937,43.511480000000063]},"properties":{"OBJECTID":119,"stop_id":"MI2133","stop_name":"Clark at Thompson","stop_lat":43.511479999999999,"stop_lon":-79.843639999999994,"wheelchair_boarding":0,"stop_code":2133}},{"type":"Feature","id":120,"geometry":{"type":"Point","coordinates":[-79.842489999999941,43.512560000000065]},"properties":{"OBJECTID":120,"stop_id":"MI2134","stop_name":"Clark at Luxton","stop_lat":43.512560000000001,"stop_lon":-79.842489999999998,"wheelchair_boarding":0,"stop_code":2134}},{"type":"Feature","id":121,"geometry":{"type":"Point","coordinates":[-79.840799999999945,43.514080000000035]},"properties":{"OBJECTID":121,"stop_id":"MI2135","stop_name":"Clark at Bennett","stop_lat":43.51408,"stop_lon":-79.840800000000002,"wheelchair_boarding":0,"stop_code":2135}},{"type":"Feature","id":122,"geometry":{"type":"Point","coordinates":[-79.842259999999953,43.515340000000037]},"properties":{"OBJECTID":122,"stop_id":"MI2136","stop_name":"Bennett at McDowell","stop_lat":43.515340000000002,"stop_lon":-79.842259999999996,"wheelchair_boarding":0,"stop_code":2136}},{"type":"Feature","id":123,"geometry":{"type":"Point","coordinates":[-79.844599999999957,43.51678000000004]},"properties":{"OBJECTID":123,"stop_id":"MI2137","stop_name":"Bennett across Yates","stop_lat":43.516779999999997,"stop_lon":-79.8446,"wheelchair_boarding":0,"stop_code":2137}},{"type":"Feature","id":124,"geometry":{"type":"Point","coordinates":[-79.844589999999982,43.51816000000008]},"properties":{"OBJECTID":124,"stop_id":"MI2138","stop_name":"Bennett across Lees","stop_lat":43.518160000000002,"stop_lon":-79.844589999999997,"wheelchair_boarding":0,"stop_code":2138}},{"type":"Feature","id":125,"geometry":{"type":"Point","coordinates":[-79.843519999999955,43.51914000000005]},"properties":{"OBJECTID":125,"stop_id":"MI2139","stop_name":"Bennett across Armstrong","stop_lat":43.51914,"stop_lon":-79.843519999999998,"wheelchair_boarding":0,"stop_code":2139}},{"type":"Feature","id":126,"geometry":{"type":"Point","coordinates":[-79.841879999999946,43.520650000000046]},"properties":{"OBJECTID":126,"stop_id":"MI2140","stop_name":"Ferguson at Agnew","stop_lat":43.520650000000003,"stop_lon":-79.841880000000003,"wheelchair_boarding":0,"stop_code":2140}},{"type":"Feature","id":127,"geometry":{"type":"Point","coordinates":[-79.838599999999985,43.519470000000069]},"properties":{"OBJECTID":127,"stop_id":"MI2141","stop_name":"Ferguson across Rolph","stop_lat":43.519469999999998,"stop_lon":-79.8386,"wheelchair_boarding":0,"stop_code":2141}},{"type":"Feature","id":128,"geometry":{"type":"Point","coordinates":[-79.836119999999937,43.517320000000041]},"properties":{"OBJECTID":128,"stop_id":"MI2142","stop_name":"Clark at Ferguson","stop_lat":43.517319999999998,"stop_lon":-79.836119999999994,"wheelchair_boarding":0,"stop_code":2142}},{"type":"Feature","id":129,"geometry":{"type":"Point","coordinates":[-79.834679999999935,43.518200000000036]},"properties":{"OBJECTID":129,"stop_id":"MI2143","stop_name":"Clark at McNeil","stop_lat":43.5182,"stop_lon":-79.834680000000006,"wheelchair_boarding":0,"stop_code":2143}},{"type":"Feature","id":130,"geometry":{"type":"Point","coordinates":[-79.832829999999944,43.519790000000057]},"properties":{"OBJECTID":130,"stop_id":"MI2144","stop_name":"Clark at Fourth Line","stop_lat":43.51979,"stop_lon":-79.832830000000001,"wheelchair_boarding":0,"stop_code":2144}},{"type":"Feature","id":131,"geometry":{"type":"Point","coordinates":[-79.830859999999973,43.518900000000031]},"properties":{"OBJECTID":131,"stop_id":"MI2145","stop_name":"Beaty Library","stop_lat":43.518900000000002,"stop_lon":-79.830860000000001,"wheelchair_boarding":0,"stop_code":2145}},{"type":"Feature","id":132,"geometry":{"type":"Point","coordinates":[-79.827219999999954,43.515880000000038]},"properties":{"OBJECTID":132,"stop_id":"MI2147","stop_name":"Louis St Laurent at Fourth Line","stop_lat":43.515880000000003,"stop_lon":-79.827219999999997,"wheelchair_boarding":0,"stop_code":2147}},{"type":"Feature","id":133,"geometry":{"type":"Point","coordinates":[-79.829209999999989,43.514060000000029]},"properties":{"OBJECTID":133,"stop_id":"MI2148","stop_name":"Louis St Laurent at Ferguson","stop_lat":43.514060000000001,"stop_lon":-79.829210000000003,"wheelchair_boarding":0,"stop_code":2148}},{"type":"Feature","id":134,"geometry":{"type":"Point","coordinates":[-79.830959999999948,43.512420000000077]},"properties":{"OBJECTID":134,"stop_id":"MI2149","stop_name":"9555 Louis St Laurent","stop_lat":43.512419999999999,"stop_lon":-79.830960000000005,"wheelchair_boarding":0,"stop_code":2149}},{"type":"Feature","id":135,"geometry":{"type":"Point","coordinates":[-79.832409999999982,43.511330000000044]},"properties":{"OBJECTID":135,"stop_id":"MI2150","stop_name":"Louis St Laurent at Freeman","stop_lat":43.511330000000001,"stop_lon":-79.832409999999996,"wheelchair_boarding":0,"stop_code":2150}},{"type":"Feature","id":136,"geometry":{"type":"Point","coordinates":[-79.834909999999979,43.509060000000034]},"properties":{"OBJECTID":136,"stop_id":"MI2152","stop_name":"Louis St Laurent at Kennedy","stop_lat":43.509059999999998,"stop_lon":-79.834909999999994,"wheelchair_boarding":0,"stop_code":2152}},{"type":"Feature","id":137,"geometry":{"type":"Point","coordinates":[-79.839099999999974,43.509110000000078]},"properties":{"OBJECTID":137,"stop_id":"MI2153","stop_name":"Kennedy at Bennett","stop_lat":43.50911,"stop_lon":-79.839100000000002,"wheelchair_boarding":0,"stop_code":2153}},{"type":"Feature","id":138,"geometry":{"type":"Point","coordinates":[-79.841469999999958,43.509430000000066]},"properties":{"OBJECTID":138,"stop_id":"MI2155","stop_name":"Thompson at Hepburn","stop_lat":43.509430000000002,"stop_lon":-79.841470000000001,"wheelchair_boarding":0,"stop_code":2155}},{"type":"Feature","id":139,"geometry":{"type":"Point","coordinates":[-79.843559999999968,43.510970000000043]},"properties":{"OBJECTID":139,"stop_id":"MI2156","stop_name":"Thompson at Clark","stop_lat":43.51097,"stop_lon":-79.843559999999997,"wheelchair_boarding":0,"stop_code":2156}},{"type":"Feature","id":140,"geometry":{"type":"Point","coordinates":[-79.845479999999952,43.512380000000064]},"properties":{"OBJECTID":140,"stop_id":"MI2158","stop_name":"802 Thompson Road","stop_lat":43.51238,"stop_lon":-79.845479999999995,"wheelchair_boarding":0,"stop_code":2158}},{"type":"Feature","id":141,"geometry":{"type":"Point","coordinates":[-79.847499999999968,43.51389000000006]},"properties":{"OBJECTID":141,"stop_id":"MI2159","stop_name":"Thompson at Yates","stop_lat":43.513890000000004,"stop_lon":-79.847499999999997,"wheelchair_boarding":0,"stop_code":2159}},{"type":"Feature","id":142,"geometry":{"type":"Point","coordinates":[-79.849139999999977,43.515090000000043]},"properties":{"OBJECTID":142,"stop_id":"MI2160","stop_name":"648 Thompson","stop_lat":43.515090000000001,"stop_lon":-79.849140000000006,"wheelchair_boarding":0,"stop_code":2160}},{"type":"Feature","id":143,"geometry":{"type":"Point","coordinates":[-79.850509999999986,43.51616000000007]},"properties":{"OBJECTID":143,"stop_id":"MI2161","stop_name":"Thompson at Derry","stop_lat":43.516159999999999,"stop_lon":-79.85051,"wheelchair_boarding":0,"stop_code":2161}},{"type":"Feature","id":144,"geometry":{"type":"Point","coordinates":[-79.852419999999938,43.517520000000047]},"properties":{"OBJECTID":144,"stop_id":"MI2162","stop_name":"Thompson opposite Lamont","stop_lat":43.517519999999998,"stop_lon":-79.852419999999995,"wheelchair_boarding":0,"stop_code":2162}},{"type":"Feature","id":145,"geometry":{"type":"Point","coordinates":[-79.85349999999994,43.518320000000074]},"properties":{"OBJECTID":145,"stop_id":"MI2163","stop_name":"Thompson at Costigan","stop_lat":43.518320000000003,"stop_lon":-79.853499999999997,"wheelchair_boarding":0,"stop_code":2163}},{"type":"Feature","id":146,"geometry":{"type":"Point","coordinates":[-79.855549999999937,43.519850000000076]},"properties":{"OBJECTID":146,"stop_id":"MI2164","stop_name":"Thompson at Laurier","stop_lat":43.519849999999998,"stop_lon":-79.855549999999994,"wheelchair_boarding":0,"stop_code":2164}},{"type":"Feature","id":147,"geometry":{"type":"Point","coordinates":[-79.858809999999949,43.52228000000008]},"properties":{"OBJECTID":147,"stop_id":"MI2165","stop_name":"Thompson at Mccuaig","stop_lat":43.522280000000002,"stop_lon":-79.858810000000005,"wheelchair_boarding":0,"stop_code":2165}},{"type":"Feature","id":148,"geometry":{"type":"Point","coordinates":[-79.863169999999968,43.522020000000055]},"properties":{"OBJECTID":148,"stop_id":"MI2204","stop_name":"Childs across Coxe","stop_lat":43.522019999999998,"stop_lon":-79.863169999999997,"wheelchair_boarding":0,"stop_code":2204}},{"type":"Feature","id":149,"geometry":{"type":"Point","coordinates":[-79.867169999999987,43.51932000000005]},"properties":{"OBJECTID":149,"stop_id":"MI2205","stop_name":"Childs across Ledwith","stop_lat":43.51932,"stop_lon":-79.867170000000002,"wheelchair_boarding":0,"stop_code":2205}},{"type":"Feature","id":150,"geometry":{"type":"Point","coordinates":[-79.870339999999942,43.519190000000037]},"properties":{"OBJECTID":150,"stop_id":"MI2206","stop_name":"Childs across Satok","stop_lat":43.519190000000002,"stop_lon":-79.870339999999999,"wheelchair_boarding":0,"stop_code":2206}},{"type":"Feature","id":151,"geometry":{"type":"Point","coordinates":[-79.871159999999975,43.519090000000062]},"properties":{"OBJECTID":151,"stop_id":"MI2207","stop_name":"Childs across Satok","stop_lat":43.519089999999998,"stop_lon":-79.871160000000003,"wheelchair_boarding":0,"stop_code":2207}},{"type":"Feature","id":152,"geometry":{"type":"Point","coordinates":[-79.872909999999933,43.518200000000036]},"properties":{"OBJECTID":152,"stop_id":"MI2208","stop_name":"Childs at Nipissing","stop_lat":43.5182,"stop_lon":-79.872910000000005,"wheelchair_boarding":0,"stop_code":2208}},{"type":"Feature","id":153,"geometry":{"type":"Point","coordinates":[-79.874139999999954,43.517090000000053]},"properties":{"OBJECTID":153,"stop_id":"MI2209","stop_name":"Childs at Ontario","stop_lat":43.517090000000003,"stop_lon":-79.874139999999997,"wheelchair_boarding":0,"stop_code":2209}},{"type":"Feature","id":154,"geometry":{"type":"Point","coordinates":[-79.874349999999936,43.515860000000032]},"properties":{"OBJECTID":154,"stop_id":"MI2210","stop_name":"Ontario at Wakefield","stop_lat":43.515860000000004,"stop_lon":-79.874350000000007,"wheelchair_boarding":0,"stop_code":2210}},{"type":"Feature","id":155,"geometry":{"type":"Point","coordinates":[-79.87274999999994,43.514670000000081]},"properties":{"OBJECTID":155,"stop_id":"MI2211","stop_name":"Ontario at Wakefield","stop_lat":43.514670000000002,"stop_lon":-79.872749999999996,"wheelchair_boarding":0,"stop_code":2211}},{"type":"Feature","id":156,"geometry":{"type":"Point","coordinates":[-79.870249999999942,43.512770000000046]},"properties":{"OBJECTID":156,"stop_id":"MI2212","stop_name":"Ontario at Donald Campbell","stop_lat":43.512770000000003,"stop_lon":-79.870249999999999,"wheelchair_boarding":0,"stop_code":2212}},{"type":"Feature","id":157,"geometry":{"type":"Point","coordinates":[-79.868959999999959,43.511800000000051]},"properties":{"OBJECTID":157,"stop_id":"MI2213","stop_name":"Ontario at Parkway","stop_lat":43.511800000000001,"stop_lon":-79.868960000000001,"wheelchair_boarding":0,"stop_code":2213}},{"type":"Feature","id":158,"geometry":{"type":"Point","coordinates":[-79.866269999999986,43.509840000000054]},"properties":{"OBJECTID":158,"stop_id":"MI2214","stop_name":"Ontario opposite Valleyview","stop_lat":43.509839999999997,"stop_lon":-79.86627,"wheelchair_boarding":0,"stop_code":2214}},{"type":"Feature","id":159,"geometry":{"type":"Point","coordinates":[-79.86475999999999,43.508720000000039]},"properties":{"OBJECTID":159,"stop_id":"MI2215","stop_name":"Ontario at Laurier","stop_lat":43.508719999999997,"stop_lon":-79.864760000000004,"wheelchair_boarding":0,"stop_code":2215}},{"type":"Feature","id":160,"geometry":{"type":"Point","coordinates":[-79.862089999999966,43.509030000000052]},"properties":{"OBJECTID":160,"stop_id":"MI2120","stop_name":"Laurier at Ontario","stop_lat":43.509030000000003,"stop_lon":-79.862089999999995,"wheelchair_boarding":0,"stop_code":2120}},{"type":"Feature","id":161,"geometry":{"type":"Point","coordinates":[-79.859909999999957,43.511570000000063]},"properties":{"OBJECTID":161,"stop_id":"MI2216","stop_name":"Laurier at Moorelands","stop_lat":43.511569999999999,"stop_lon":-79.859909999999999,"wheelchair_boarding":0,"stop_code":2216}},{"type":"Feature","id":162,"geometry":{"type":"Point","coordinates":[-79.859179999999981,43.513090000000034]},"properties":{"OBJECTID":162,"stop_id":"MI2217","stop_name":"Laurier at Holly","stop_lat":43.513089999999998,"stop_lon":-79.859179999999995,"wheelchair_boarding":0,"stop_code":2217}},{"type":"Feature","id":163,"geometry":{"type":"Point","coordinates":[-79.856379999999945,43.511550000000057]},"properties":{"OBJECTID":163,"stop_id":"MI2218","stop_name":"Holly at Derry","stop_lat":43.51155,"stop_lon":-79.856380000000001,"wheelchair_boarding":0,"stop_code":2218}},{"type":"Feature","id":164,"geometry":{"type":"Point","coordinates":[-79.853759999999966,43.509650000000079]},"properties":{"OBJECTID":164,"stop_id":"MI2220","stop_name":"Holly at Yates","stop_lat":43.509650000000001,"stop_lon":-79.853759999999994,"wheelchair_boarding":0,"stop_code":2220}},{"type":"Feature","id":165,"geometry":{"type":"Point","coordinates":[-79.851679999999988,43.51066000000003]},"properties":{"OBJECTID":165,"stop_id":"MI2221","stop_name":"Philbrook at Yates","stop_lat":43.510660000000001,"stop_lon":-79.851680000000002,"wheelchair_boarding":0,"stop_code":2221}},{"type":"Feature","id":166,"geometry":{"type":"Point","coordinates":[-79.850059999999985,43.509470000000078]},"properties":{"OBJECTID":166,"stop_id":"MI2222","stop_name":"Philbrook across Cousens","stop_lat":43.50947,"stop_lon":-79.850059999999999,"wheelchair_boarding":0,"stop_code":2222}},{"type":"Feature","id":167,"geometry":{"type":"Point","coordinates":[-79.848539999999957,43.508270000000039]},"properties":{"OBJECTID":167,"stop_id":"MI2223","stop_name":"Philbrook at Clark","stop_lat":43.508270000000003,"stop_lon":-79.84854,"wheelchair_boarding":0,"stop_code":2223}},{"type":"Feature","id":168,"geometry":{"type":"Point","coordinates":[-79.846789999999942,43.507520000000056]},"properties":{"OBJECTID":168,"stop_id":"MI2224","stop_name":"Philbrook at Bolingbroke","stop_lat":43.50752,"stop_lon":-79.846789999999999,"wheelchair_boarding":0,"stop_code":2224}},{"type":"Feature","id":169,"geometry":{"type":"Point","coordinates":[-79.843609999999956,43.506850000000043]},"properties":{"OBJECTID":169,"stop_id":"MI2225","stop_name":"Hepburn at Howden","stop_lat":43.50685,"stop_lon":-79.843609999999998,"wheelchair_boarding":0,"stop_code":2225}},{"type":"Feature","id":170,"geometry":{"type":"Point","coordinates":[-79.845059999999989,43.50550000000004]},"properties":{"OBJECTID":170,"stop_id":"MI2226","stop_name":"Hepburn at Sprague","stop_lat":43.505499999999998,"stop_lon":-79.845060000000004,"wheelchair_boarding":0,"stop_code":2226}},{"type":"Feature","id":171,"geometry":{"type":"Point","coordinates":[-79.846369999999979,43.504350000000045]},"properties":{"OBJECTID":171,"stop_id":"MI2227","stop_name":"Hepburn at Ambroise","stop_lat":43.504350000000002,"stop_lon":-79.846369999999993,"wheelchair_boarding":0,"stop_code":2227}},{"type":"Feature","id":172,"geometry":{"type":"Point","coordinates":[-79.847669999999937,43.503250000000037]},"properties":{"OBJECTID":172,"stop_id":"MI2228","stop_name":"Hepburn at Yates","stop_lat":43.503250000000001,"stop_lon":-79.847669999999994,"wheelchair_boarding":0,"stop_code":2228}},{"type":"Feature","id":173,"geometry":{"type":"Point","coordinates":[-79.849369999999965,43.504370000000051]},"properties":{"OBJECTID":173,"stop_id":"MI2229","stop_name":"Yates at Bolingbroke","stop_lat":43.504370000000002,"stop_lon":-79.849369999999993,"wheelchair_boarding":0,"stop_code":2229}},{"type":"Feature","id":174,"geometry":{"type":"Point","coordinates":[-79.851639999999975,43.505860000000041]},"properties":{"OBJECTID":174,"stop_id":"MI2230","stop_name":"Yates across Stoutt","stop_lat":43.505859999999998,"stop_lon":-79.851640000000003,"wheelchair_boarding":0,"stop_code":2230}},{"type":"Feature","id":175,"geometry":{"type":"Point","coordinates":[-79.853219999999965,43.506770000000074]},"properties":{"OBJECTID":175,"stop_id":"MI2231","stop_name":"Yates across Symons","stop_lat":43.506770000000003,"stop_lon":-79.853219999999993,"wheelchair_boarding":0,"stop_code":2231}},{"type":"Feature","id":176,"geometry":{"type":"Point","coordinates":[-79.85436999999996,43.507640000000038]},"properties":{"OBJECTID":176,"stop_id":"MI2232","stop_name":"Yates across Snider","stop_lat":43.507640000000002,"stop_lon":-79.854370000000003,"wheelchair_boarding":0,"stop_code":2232}},{"type":"Feature","id":177,"geometry":{"type":"Point","coordinates":[-79.853639999999984,43.509430000000066]},"properties":{"OBJECTID":177,"stop_id":"MI2233","stop_name":"Yates across Holly","stop_lat":43.509430000000002,"stop_lon":-79.853639999999999,"wheelchair_boarding":0,"stop_code":2233}},{"type":"Feature","id":178,"geometry":{"type":"Point","coordinates":[-79.85576999999995,43.511360000000025]},"properties":{"OBJECTID":178,"stop_id":"MI2235","stop_name":"Holly at Derry","stop_lat":43.511360000000003,"stop_lon":-79.855770000000007,"wheelchair_boarding":0,"stop_code":2235}},{"type":"Feature","id":179,"geometry":{"type":"Point","coordinates":[-79.858739999999955,43.513250000000028]},"properties":{"OBJECTID":179,"stop_id":"MI2236","stop_name":"Holly at Laurier","stop_lat":43.513249999999999,"stop_lon":-79.858739999999997,"wheelchair_boarding":0,"stop_code":2236}},{"type":"Feature","id":180,"geometry":{"type":"Point","coordinates":[-79.860779999999977,43.511000000000081]},"properties":{"OBJECTID":180,"stop_id":"MI2237","stop_name":"Laurier at Beaver","stop_lat":43.511000000000003,"stop_lon":-79.860780000000005,"wheelchair_boarding":0,"stop_code":2237}},{"type":"Feature","id":181,"geometry":{"type":"Point","coordinates":[-79.862209999999948,43.50908000000004]},"properties":{"OBJECTID":181,"stop_id":"MI2238","stop_name":"Laurier at Ontario","stop_lat":43.509079999999997,"stop_lon":-79.862210000000005,"wheelchair_boarding":0,"stop_code":2238}},{"type":"Feature","id":182,"geometry":{"type":"Point","coordinates":[-79.864049999999963,43.508510000000058]},"properties":{"OBJECTID":182,"stop_id":"MI2239","stop_name":"Ontario at Laurier","stop_lat":43.508510000000001,"stop_lon":-79.864050000000006,"wheelchair_boarding":0,"stop_code":2239}},{"type":"Feature","id":183,"geometry":{"type":"Point","coordinates":[-79.866149999999948,43.51004000000006]},"properties":{"OBJECTID":183,"stop_id":"MI2240","stop_name":"Ontario opposite Valleyview","stop_lat":43.510039999999996,"stop_lon":-79.866150000000005,"wheelchair_boarding":0,"stop_code":2240}},{"type":"Feature","id":184,"geometry":{"type":"Point","coordinates":[-79.868939999999952,43.512120000000039]},"properties":{"OBJECTID":184,"stop_id":"MI2241","stop_name":"Ontario at Centennial Forest","stop_lat":43.512120000000003,"stop_lon":-79.868939999999995,"wheelchair_boarding":0,"stop_code":2241}},{"type":"Feature","id":185,"geometry":{"type":"Point","coordinates":[-79.87054999999998,43.513400000000047]},"properties":{"OBJECTID":185,"stop_id":"MI2242","stop_name":"Ontario across Donald Campbell","stop_lat":43.513399999999997,"stop_lon":-79.870549999999994,"wheelchair_boarding":0,"stop_code":2242}},{"type":"Feature","id":186,"geometry":{"type":"Point","coordinates":[-79.872059999999976,43.514470000000074]},"properties":{"OBJECTID":186,"stop_id":"MI2243","stop_name":"Ontario across Wakefield","stop_lat":43.514470000000003,"stop_lon":-79.872060000000005,"wheelchair_boarding":0,"stop_code":2243}},{"type":"Feature","id":187,"geometry":{"type":"Point","coordinates":[-79.873249999999985,43.515370000000075]},"properties":{"OBJECTID":187,"stop_id":"MI2244","stop_name":"Ontario across Wakefield","stop_lat":43.515369999999997,"stop_lon":-79.873249999999999,"wheelchair_boarding":0,"stop_code":2244}},{"type":"Feature","id":188,"geometry":{"type":"Point","coordinates":[-79.871069999999975,43.495730000000037]},"properties":{"OBJECTID":188,"stop_id":"MI2246","stop_name":"Bronte at Derry","stop_lat":43.495730000000002,"stop_lon":-79.871070000000003,"wheelchair_boarding":0,"stop_code":2246}},{"type":"Feature","id":189,"geometry":{"type":"Point","coordinates":[-79.868439999999964,43.493800000000078]},"properties":{"OBJECTID":189,"stop_id":"MI2248","stop_name":"Bronte at McLaughlin","stop_lat":43.4938,"stop_lon":-79.868440000000007,"wheelchair_boarding":0,"stop_code":2248}},{"type":"Feature","id":190,"geometry":{"type":"Point","coordinates":[-79.866319999999973,43.492220000000032]},"properties":{"OBJECTID":190,"stop_id":"MI2249","stop_name":"Bronte alongisde Rottenburg","stop_lat":43.492220000000003,"stop_lon":-79.866320000000002,"wheelchair_boarding":0,"stop_code":2249}},{"type":"Feature","id":191,"geometry":{"type":"Point","coordinates":[-79.864649999999983,43.490990000000068]},"properties":{"OBJECTID":191,"stop_id":"MI2250","stop_name":"Bronte at Ruhl","stop_lat":43.490989999999996,"stop_lon":-79.864649999999997,"wheelchair_boarding":0,"stop_code":2250}},{"type":"Feature","id":192,"geometry":{"type":"Point","coordinates":[-79.862719999999968,43.489570000000072]},"properties":{"OBJECTID":192,"stop_id":"MI2251","stop_name":"Bronte alongside Biason","stop_lat":43.489570000000001,"stop_lon":-79.862719999999996,"wheelchair_boarding":0,"stop_code":2251}},{"type":"Feature","id":193,"geometry":{"type":"Point","coordinates":[-79.860679999999945,43.488080000000025]},"properties":{"OBJECTID":193,"stop_id":"MI2253","stop_name":"Bronte at Leiterman","stop_lat":43.488079999999997,"stop_lon":-79.860680000000002,"wheelchair_boarding":0,"stop_code":2253}},{"type":"Feature","id":194,"geometry":{"type":"Point","coordinates":[-79.857959999999935,43.487360000000081]},"properties":{"OBJECTID":194,"stop_id":"MI2254","stop_name":"Louis St Laurent at Bronte","stop_lat":43.487360000000002,"stop_lon":-79.857960000000006,"wheelchair_boarding":0,"stop_code":2254}},{"type":"Feature","id":195,"geometry":{"type":"Point","coordinates":[-79.854989999999987,43.492440000000045]},"properties":{"OBJECTID":195,"stop_id":"MI2257","stop_name":"Farmstead across Dalhousie","stop_lat":43.492440000000002,"stop_lon":-79.854990000000001,"wheelchair_boarding":0,"stop_code":2257}},{"type":"Feature","id":196,"geometry":{"type":"Point","coordinates":[-79.857469999999978,43.494140000000073]},"properties":{"OBJECTID":196,"stop_id":"MI2258","stop_name":"Farmstead across Carbert","stop_lat":43.494140000000002,"stop_lon":-79.857470000000006,"wheelchair_boarding":0,"stop_code":2258}},{"type":"Feature","id":197,"geometry":{"type":"Point","coordinates":[-79.85970999999995,43.495810000000063]},"properties":{"OBJECTID":197,"stop_id":"MI2259","stop_name":"Farmstead across McFerran","stop_lat":43.495809999999999,"stop_lon":-79.859710000000007,"wheelchair_boarding":0,"stop_code":2259}},{"type":"Feature","id":198,"geometry":{"type":"Point","coordinates":[-79.862639999999942,43.49726000000004]},"properties":{"OBJECTID":198,"stop_id":"MI2260","stop_name":"801 Farmstead","stop_lat":43.497259999999997,"stop_lon":-79.862639999999999,"wheelchair_boarding":0,"stop_code":2260}},{"type":"Feature","id":199,"geometry":{"type":"Point","coordinates":[-79.864439999999945,43.497560000000078]},"properties":{"OBJECTID":199,"stop_id":"MI2261","stop_name":"Farmstead at McLaughlin","stop_lat":43.49756,"stop_lon":-79.864440000000002,"wheelchair_boarding":0,"stop_code":2261}},{"type":"Feature","id":200,"geometry":{"type":"Point","coordinates":[-79.863069999999936,43.499340000000075]},"properties":{"OBJECTID":200,"stop_id":"MI2262","stop_name":"McLaughlin across Serafini","stop_lat":43.499339999999997,"stop_lon":-79.863069999999993,"wheelchair_boarding":0,"stop_code":2262}},{"type":"Feature","id":201,"geometry":{"type":"Point","coordinates":[-79.861959999999954,43.501050000000077]},"properties":{"OBJECTID":201,"stop_id":"MI2263","stop_name":"Santa Maria across McLaughlin","stop_lat":43.501049999999999,"stop_lon":-79.861959999999996,"wheelchair_boarding":0,"stop_code":2263}},{"type":"Feature","id":202,"geometry":{"type":"Point","coordinates":[-79.864019999999982,43.502290000000073]},"properties":{"OBJECTID":202,"stop_id":"MI2264","stop_name":"Milton Sports Centre","stop_lat":43.502290000000002,"stop_lon":-79.864019999999996,"wheelchair_boarding":0,"stop_code":2264}},{"type":"Feature","id":203,"geometry":{"type":"Point","coordinates":[-79.856699999999989,43.488560000000064]},"properties":{"OBJECTID":203,"stop_id":"MI2255","stop_name":"Louis St Laurent at Leger","stop_lat":43.48856,"stop_lon":-79.856700000000004,"wheelchair_boarding":0,"stop_code":2255}},{"type":"Feature","id":204,"geometry":{"type":"Point","coordinates":[-79.854719999999986,43.490600000000029]},"properties":{"OBJECTID":204,"stop_id":"MI2256","stop_name":"Louis St Laurent at Farmstead","stop_lat":43.490600000000001,"stop_lon":-79.85472,"wheelchair_boarding":0,"stop_code":2256}},{"type":"Feature","id":205,"geometry":{"type":"Point","coordinates":[-79.86678999999998,43.52395000000007]},"properties":{"OBJECTID":205,"stop_id":"MI2351","stop_name":"Milton GO Station","stop_lat":43.523949999999999,"stop_lon":-79.866789999999995,"wheelchair_boarding":0,"stop_code":2351}},{"type":"Feature","id":206,"geometry":{"type":"Point","coordinates":[-79.872229999999945,43.523410000000069]},"properties":{"OBJECTID":206,"stop_id":"MI2020","stop_name":"Main at Wilson","stop_lat":43.523409999999998,"stop_lon":-79.872230000000002,"wheelchair_boarding":0,"stop_code":2020}},{"type":"Feature","id":207,"geometry":{"type":"Point","coordinates":[-79.87686999999994,43.519080000000031]},"properties":{"OBJECTID":207,"stop_id":"MI2021","stop_name":"Main at Ontario","stop_lat":43.519080000000002,"stop_lon":-79.876869999999997,"wheelchair_boarding":0,"stop_code":2021}},{"type":"Feature","id":208,"geometry":{"type":"Point","coordinates":[-79.880669999999952,43.520840000000078]},"properties":{"OBJECTID":208,"stop_id":"MI2352","stop_name":"Ontario across George","stop_lat":43.52084,"stop_lon":-79.880669999999995,"wheelchair_boarding":0,"stop_code":2352}},{"type":"Feature","id":209,"geometry":{"type":"Point","coordinates":[-79.881939999999986,43.521820000000048]},"properties":{"OBJECTID":209,"stop_id":"MI2353","stop_name":"Ontario at Woodward","stop_lat":43.521819999999998,"stop_lon":-79.88194,"wheelchair_boarding":0,"stop_code":2353}},{"type":"Feature","id":210,"geometry":{"type":"Point","coordinates":[-79.883599999999944,43.523060000000044]},"properties":{"OBJECTID":210,"stop_id":"MI2354","stop_name":"Ontario across Mountainview","stop_lat":43.523060000000001,"stop_lon":-79.883600000000001,"wheelchair_boarding":0,"stop_code":2354}},{"type":"Feature","id":211,"geometry":{"type":"Point","coordinates":[-79.885249999999985,43.524250000000052]},"properties":{"OBJECTID":211,"stop_id":"MI2355","stop_name":"Ontario at Pitfield","stop_lat":43.524250000000002,"stop_lon":-79.885249999999999,"wheelchair_boarding":0,"stop_code":2355}},{"type":"Feature","id":212,"geometry":{"type":"Point","coordinates":[-79.886799999999937,43.525420000000054]},"properties":{"OBJECTID":212,"stop_id":"MI2356","stop_name":"Ontario across Ridge","stop_lat":43.525419999999997,"stop_lon":-79.886799999999994,"wheelchair_boarding":0,"stop_code":2356}},{"type":"Feature","id":213,"geometry":{"type":"Point","coordinates":[-79.890059999999949,43.525240000000053]},"properties":{"OBJECTID":213,"stop_id":"MI2357","stop_name":"Steeles at Ontario","stop_lat":43.525239999999997,"stop_lon":-79.890060000000005,"wheelchair_boarding":0,"stop_code":2357}},{"type":"Feature","id":214,"geometry":{"type":"Point","coordinates":[-79.891709999999989,43.523760000000038]},"properties":{"OBJECTID":214,"stop_id":"MI2358","stop_name":"Steeles at Wheelabrator","stop_lat":43.523760000000003,"stop_lon":-79.891710000000003,"wheelchair_boarding":0,"stop_code":2358}},{"type":"Feature","id":215,"geometry":{"type":"Point","coordinates":[-79.895109999999988,43.520700000000033]},"properties":{"OBJECTID":215,"stop_id":"MI2359","stop_name":"Steeles at Chris Hadfield","stop_lat":43.520699999999998,"stop_lon":-79.895110000000003,"wheelchair_boarding":0,"stop_code":2359}},{"type":"Feature","id":216,"geometry":{"type":"Point","coordinates":[-79.899189999999976,43.516980000000046]},"properties":{"OBJECTID":216,"stop_id":"MI2360","stop_name":"Steeles across Bronte","stop_lat":43.516979999999997,"stop_lon":-79.899190000000004,"wheelchair_boarding":0,"stop_code":2360}},{"type":"Feature","id":217,"geometry":{"type":"Point","coordinates":[-79.902019999999936,43.516420000000039]},"properties":{"OBJECTID":217,"stop_id":"MI2361","stop_name":"Industrial at Steeles","stop_lat":43.516419999999997,"stop_lon":-79.902019999999993,"wheelchair_boarding":0,"stop_code":2361}},{"type":"Feature","id":218,"geometry":{"type":"Point","coordinates":[-79.905729999999949,43.516670000000033]},"properties":{"OBJECTID":218,"stop_id":"MI2362","stop_name":"Milton Laurier Academic Centre","stop_lat":43.516669999999998,"stop_lon":-79.905730000000005,"wheelchair_boarding":0,"stop_code":2362}},{"type":"Feature","id":219,"geometry":{"type":"Point","coordinates":[-79.907709999999952,43.517790000000048]},"properties":{"OBJECTID":219,"stop_id":"MI2363","stop_name":"Market at Industrial","stop_lat":43.517789999999998,"stop_lon":-79.907709999999994,"wheelchair_boarding":0,"stop_code":2363}},{"type":"Feature","id":220,"geometry":{"type":"Point","coordinates":[-79.904979999999966,43.520250000000033]},"properties":{"OBJECTID":220,"stop_id":"MI2364","stop_name":"180 Market","stop_lat":43.520249999999997,"stop_lon":-79.904979999999995,"wheelchair_boarding":0,"stop_code":2364}},{"type":"Feature","id":221,"geometry":{"type":"Point","coordinates":[-79.900739999999985,43.523180000000025]},"properties":{"OBJECTID":221,"stop_id":"MI2365","stop_name":"Market at Martin","stop_lat":43.523180000000004,"stop_lon":-79.900739999999999,"wheelchair_boarding":0,"stop_code":2365}},{"type":"Feature","id":222,"geometry":{"type":"Point","coordinates":[-79.901749999999936,43.525540000000035]},"properties":{"OBJECTID":222,"stop_id":"MI2366","stop_name":"Martin across Chisholm","stop_lat":43.525539999999999,"stop_lon":-79.901750000000007,"wheelchair_boarding":0,"stop_code":2366}},{"type":"Feature","id":223,"geometry":{"type":"Point","coordinates":[-79.903819999999939,43.527480000000025]},"properties":{"OBJECTID":223,"stop_id":"MI2333","stop_name":"Highway 401 ParkAndRide","stop_lat":43.527479999999997,"stop_lon":-79.903819999999996,"wheelchair_boarding":0,"stop_code":2333}},{"type":"Feature","id":224,"geometry":{"type":"Point","coordinates":[-79.910019999999975,43.533060000000035]},"properties":{"OBJECTID":224,"stop_id":"MI2324","stop_name":"High Point at Regional Road 25","stop_lat":43.533059999999999,"stop_lon":-79.910020000000003,"wheelchair_boarding":0,"stop_code":2324}},{"type":"Feature","id":225,"geometry":{"type":"Point","coordinates":[-79.909169999999961,43.534040000000061]},"properties":{"OBJECTID":225,"stop_id":"MI2325","stop_name":"High Point at Parkhill","stop_lat":43.534039999999997,"stop_lon":-79.909170000000003,"wheelchair_boarding":0,"stop_code":2325}},{"type":"Feature","id":226,"geometry":{"type":"Point","coordinates":[-79.905169999999941,43.536690000000078]},"properties":{"OBJECTID":226,"stop_id":"MI2326","stop_name":"8001 Parkhill","stop_lat":43.53669,"stop_lon":-79.905169999999998,"wheelchair_boarding":0,"stop_code":2326}},{"type":"Feature","id":227,"geometry":{"type":"Point","coordinates":[-79.903929999999946,43.535790000000077]},"properties":{"OBJECTID":227,"stop_id":"MI2327","stop_name":"Parkhill at Durante","stop_lat":43.535789999999999,"stop_lon":-79.903930000000003,"wheelchair_boarding":0,"stop_code":2327}},{"type":"Feature","id":228,"geometry":{"type":"Point","coordinates":[-79.901699999999948,43.53412000000003]},"properties":{"OBJECTID":228,"stop_id":"MI2328","stop_name":"8128 Parkhill","stop_lat":43.534120000000001,"stop_lon":-79.901700000000005,"wheelchair_boarding":0,"stop_code":2328}},{"type":"Feature","id":229,"geometry":{"type":"Point","coordinates":[-79.903569999999945,43.532620000000065]},"properties":{"OBJECTID":229,"stop_id":"MI2329","stop_name":"8218 Parkhill","stop_lat":43.532620000000001,"stop_lon":-79.903570000000002,"wheelchair_boarding":0,"stop_code":2329}},{"type":"Feature","id":230,"geometry":{"type":"Point","coordinates":[-79.907359999999983,43.533180000000073]},"properties":{"OBJECTID":230,"stop_id":"MI2330","stop_name":"Parkhill at Durante","stop_lat":43.533180000000002,"stop_lon":-79.907359999999997,"wheelchair_boarding":0,"stop_code":2330}},{"type":"Feature","id":231,"geometry":{"type":"Point","coordinates":[-79.908759999999972,43.534150000000068]},"properties":{"OBJECTID":231,"stop_id":"MI2331","stop_name":"Parkhill at High Point","stop_lat":43.534149999999997,"stop_lon":-79.908760000000001,"wheelchair_boarding":0,"stop_code":2331}},{"type":"Feature","id":232,"geometry":{"type":"Point","coordinates":[-79.910229999999956,43.533150000000035]},"properties":{"OBJECTID":232,"stop_id":"MI2332","stop_name":"High Point at Regional Road 25","stop_lat":43.533149999999999,"stop_lon":-79.910229999999999,"wheelchair_boarding":0,"stop_code":2332}},{"type":"Feature","id":233,"geometry":{"type":"Point","coordinates":[-79.868399999999951,43.524680000000046]},"properties":{"OBJECTID":233,"stop_id":"MI2017","stop_name":"Drew Centre at Main","stop_lat":43.524679999999996,"stop_lon":-79.868399999999994,"wheelchair_boarding":0,"stop_code":2017}},{"type":"Feature","id":234,"geometry":{"type":"Point","coordinates":[-79.875699999999938,43.534850000000063]},"properties":{"OBJECTID":234,"stop_id":"MI2075","stop_name":"Thompson at Maple","stop_lat":43.534849999999999,"stop_lon":-79.875699999999995,"wheelchair_boarding":0,"stop_code":2075}},{"type":"Feature","id":235,"geometry":{"type":"Point","coordinates":[-79.877089999999953,43.536090000000058]},"properties":{"OBJECTID":235,"stop_id":"MI2076","stop_name":"Thompson at Steeles","stop_lat":43.536090000000002,"stop_lon":-79.877089999999995,"wheelchair_boarding":0,"stop_code":2076}},{"type":"Feature","id":236,"geometry":{"type":"Point","coordinates":[-79.901769999999942,43.525100000000066]},"properties":{"OBJECTID":236,"stop_id":"MI2334","stop_name":"Regional Road 25 at Chisholm","stop_lat":43.525100000000002,"stop_lon":-79.901769999999999,"wheelchair_boarding":0,"stop_code":2334}},{"type":"Feature","id":237,"geometry":{"type":"Point","coordinates":[-79.900549999999953,43.524120000000039]},"properties":{"OBJECTID":237,"stop_id":"MI2335","stop_name":"Martin at Market","stop_lat":43.524120000000003,"stop_lon":-79.900549999999996,"wheelchair_boarding":0,"stop_code":2335}},{"type":"Feature","id":238,"geometry":{"type":"Point","coordinates":[-79.90083999999996,43.523340000000076]},"properties":{"OBJECTID":238,"stop_id":"MI2336","stop_name":"Market at Martin","stop_lat":43.523339999999997,"stop_lon":-79.900840000000002,"wheelchair_boarding":0,"stop_code":2336}},{"type":"Feature","id":239,"geometry":{"type":"Point","coordinates":[-79.905159999999967,43.520300000000077]},"properties":{"OBJECTID":239,"stop_id":"MI2337","stop_name":"205 Market","stop_lat":43.520299999999999,"stop_lon":-79.905159999999995,"wheelchair_boarding":0,"stop_code":2337}},{"type":"Feature","id":240,"geometry":{"type":"Point","coordinates":[-79.906699999999944,43.518930000000069]},"properties":{"OBJECTID":240,"stop_id":"MI2338","stop_name":"331 Market","stop_lat":43.518929999999997,"stop_lon":-79.906700000000001,"wheelchair_boarding":0,"stop_code":2338}},{"type":"Feature","id":241,"geometry":{"type":"Point","coordinates":[-79.907879999999977,43.517880000000048]},"properties":{"OBJECTID":241,"stop_id":"MI2339","stop_name":"Market at Industrial","stop_lat":43.517879999999998,"stop_lon":-79.907880000000006,"wheelchair_boarding":0,"stop_code":2339}},{"type":"Feature","id":242,"geometry":{"type":"Point","coordinates":[-79.905759999999987,43.516510000000039]},"properties":{"OBJECTID":242,"stop_id":"MI2340","stop_name":"Milton Laurier Academic Centre","stop_lat":43.516509999999997,"stop_lon":-79.905760000000001,"wheelchair_boarding":0,"stop_code":2340}},{"type":"Feature","id":243,"geometry":{"type":"Point","coordinates":[-79.902269999999987,43.516350000000045]},"properties":{"OBJECTID":243,"stop_id":"MI2341","stop_name":"Industrial at Steeles","stop_lat":43.516350000000003,"stop_lon":-79.902270000000001,"wheelchair_boarding":0,"stop_code":2341}},{"type":"Feature","id":244,"geometry":{"type":"Point","coordinates":[-79.898319999999956,43.517520000000047]},"properties":{"OBJECTID":244,"stop_id":"MI2342","stop_name":"Steeles at Bronte","stop_lat":43.517519999999998,"stop_lon":-79.898319999999998,"wheelchair_boarding":0,"stop_code":2342}},{"type":"Feature","id":245,"geometry":{"type":"Point","coordinates":[-79.894879999999944,43.520670000000052]},"properties":{"OBJECTID":245,"stop_id":"MI2343","stop_name":"Steeles at Martin","stop_lat":43.520670000000003,"stop_lon":-79.894880000000001,"wheelchair_boarding":0,"stop_code":2343}},{"type":"Feature","id":246,"geometry":{"type":"Point","coordinates":[-79.89122999999995,43.523830000000032]},"properties":{"OBJECTID":246,"stop_id":"MI2344","stop_name":"Steeles across Wheelabrator","stop_lat":43.523829999999997,"stop_lon":-79.891229999999993,"wheelchair_boarding":0,"stop_code":2344}},{"type":"Feature","id":247,"geometry":{"type":"Point","coordinates":[-79.889249999999947,43.525610000000029]},"properties":{"OBJECTID":247,"stop_id":"MI2345","stop_name":"Steeles at Ontario","stop_lat":43.52561,"stop_lon":-79.889250000000004,"wheelchair_boarding":0,"stop_code":2345}},{"type":"Feature","id":248,"geometry":{"type":"Point","coordinates":[-79.886859999999956,43.525120000000072]},"properties":{"OBJECTID":248,"stop_id":"MI2346","stop_name":"Ontario at Ridge","stop_lat":43.525120000000001,"stop_lon":-79.886859999999999,"wheelchair_boarding":0,"stop_code":2346}},{"type":"Feature","id":249,"geometry":{"type":"Point","coordinates":[-79.885639999999967,43.524250000000052]},"properties":{"OBJECTID":249,"stop_id":"MI2347","stop_name":"Ontario across Pitfield","stop_lat":43.524250000000002,"stop_lon":-79.885639999999995,"wheelchair_boarding":0,"stop_code":2347}},{"type":"Feature","id":250,"geometry":{"type":"Point","coordinates":[-79.883839999999964,43.522920000000056]},"properties":{"OBJECTID":250,"stop_id":"MI2348","stop_name":"Ontario at Mountainview","stop_lat":43.522919999999999,"stop_lon":-79.883840000000006,"wheelchair_boarding":0,"stop_code":2348}},{"type":"Feature","id":251,"geometry":{"type":"Point","coordinates":[-79.882579999999962,43.521980000000042]},"properties":{"OBJECTID":251,"stop_id":"MI2349","stop_name":"Ontario at Woodward","stop_lat":43.521979999999999,"stop_lon":-79.882580000000004,"wheelchair_boarding":0,"stop_code":2349}},{"type":"Feature","id":252,"geometry":{"type":"Point","coordinates":[-79.879949999999951,43.520000000000039]},"properties":{"OBJECTID":252,"stop_id":"MI2350","stop_name":"Ontario at George","stop_lat":43.520000000000003,"stop_lon":-79.879949999999994,"wheelchair_boarding":0,"stop_code":2350}},{"type":"Feature","id":253,"geometry":{"type":"Point","coordinates":[-79.876469999999983,43.519090000000062]},"properties":{"OBJECTID":253,"stop_id":"MI2060","stop_name":"Main at Milton Mall","stop_lat":43.519089999999998,"stop_lon":-79.876469999999998,"wheelchair_boarding":0,"stop_code":2060}},{"type":"Feature","id":254,"geometry":{"type":"Point","coordinates":[-79.872499999999945,43.522820000000081]},"properties":{"OBJECTID":254,"stop_id":"MI2061","stop_name":"Main across Wilson","stop_lat":43.522820000000003,"stop_lon":-79.872500000000002,"wheelchair_boarding":0,"stop_code":2061}},{"type":"Feature","id":255,"geometry":{"type":"Point","coordinates":[-79.885199999999941,43.511410000000069]},"properties":{"OBJECTID":255,"stop_id":"MI2080","stop_name":"Main at James","stop_lat":43.511409999999998,"stop_lon":-79.885199999999998,"wheelchair_boarding":0,"stop_code":2080}},{"type":"Feature","id":256,"geometry":{"type":"Point","coordinates":[-79.890789999999981,43.506310000000042]},"properties":{"OBJECTID":256,"stop_id":"MI2082","stop_name":"Main across Whitmer","stop_lat":43.506309999999999,"stop_lon":-79.890789999999996,"wheelchair_boarding":0,"stop_code":2082}},{"type":"Feature","id":257,"geometry":{"type":"Point","coordinates":[-79.892569999999978,43.503590000000031]},"properties":{"OBJECTID":257,"stop_id":"MI2083","stop_name":"Scott at Main","stop_lat":43.503590000000003,"stop_lon":-79.892570000000006,"wheelchair_boarding":0,"stop_code":2083}},{"type":"Feature","id":258,"geometry":{"type":"Point","coordinates":[-79.890649999999937,43.50276000000008]},"properties":{"OBJECTID":258,"stop_id":"MI2084","stop_name":"Scott at Huntingford","stop_lat":43.502760000000002,"stop_lon":-79.890649999999994,"wheelchair_boarding":0,"stop_code":2084}},{"type":"Feature","id":259,"geometry":{"type":"Point","coordinates":[-79.888159999999971,43.501910000000066]},"properties":{"OBJECTID":259,"stop_id":"MI2085","stop_name":"Scott at Forbes","stop_lat":43.501910000000002,"stop_lon":-79.888159999999999,"wheelchair_boarding":0,"stop_code":2085}},{"type":"Feature","id":260,"geometry":{"type":"Point","coordinates":[-79.886679999999956,43.500970000000052]},"properties":{"OBJECTID":260,"stop_id":"MI2086","stop_name":"Scott across Portch","stop_lat":43.500970000000002,"stop_lon":-79.886679999999998,"wheelchair_boarding":0,"stop_code":2086}},{"type":"Feature","id":261,"geometry":{"type":"Point","coordinates":[-79.884509999999977,43.500020000000063]},"properties":{"OBJECTID":261,"stop_id":"MI2087","stop_name":"Scott at Pringle","stop_lat":43.500019999999999,"stop_lon":-79.884510000000006,"wheelchair_boarding":0,"stop_code":2087}},{"type":"Feature","id":262,"geometry":{"type":"Point","coordinates":[-79.882819999999981,43.498530000000073]},"properties":{"OBJECTID":262,"stop_id":"MI2088","stop_name":"Scott at Wrigglesworth","stop_lat":43.498530000000002,"stop_lon":-79.882819999999995,"wheelchair_boarding":0,"stop_code":2088}},{"type":"Feature","id":263,"geometry":{"type":"Point","coordinates":[-79.882149999999967,43.496880000000033]},"properties":{"OBJECTID":263,"stop_id":"MI2089","stop_name":"Scott at Baylis","stop_lat":43.496879999999997,"stop_lon":-79.882149999999996,"wheelchair_boarding":0,"stop_code":2089}},{"type":"Feature","id":264,"geometry":{"type":"Point","coordinates":[-79.88122999999996,43.494760000000042]},"properties":{"OBJECTID":264,"stop_id":"MI2090","stop_name":"Scott at Landsborough","stop_lat":43.494759999999999,"stop_lon":-79.881230000000002,"wheelchair_boarding":0,"stop_code":2090}},{"type":"Feature","id":265,"geometry":{"type":"Point","coordinates":[-79.88000999999997,43.493900000000053]},"properties":{"OBJECTID":265,"stop_id":"MI2091","stop_name":"Scott at Weston","stop_lat":43.493899999999996,"stop_lon":-79.880009999999999,"wheelchair_boarding":0,"stop_code":2091}},{"type":"Feature","id":266,"geometry":{"type":"Point","coordinates":[-79.877839999999935,43.492360000000076]},"properties":{"OBJECTID":266,"stop_id":"MI2092","stop_name":"Scott at Derry","stop_lat":43.492359999999998,"stop_lon":-79.877840000000006,"wheelchair_boarding":0,"stop_code":2092}},{"type":"Feature","id":267,"geometry":{"type":"Point","coordinates":[-79.877949999999942,43.491550000000075]},"properties":{"OBJECTID":267,"stop_id":"MI2093","stop_name":"Derry at Scott","stop_lat":43.491549999999997,"stop_lon":-79.877949999999998,"wheelchair_boarding":0,"stop_code":2093}},{"type":"Feature","id":268,"geometry":{"type":"Point","coordinates":[-79.881759999999986,43.488870000000077]},"properties":{"OBJECTID":268,"stop_id":"MI2094","stop_name":"Savoline at Derry","stop_lat":43.488869999999999,"stop_lon":-79.88176,"wheelchair_boarding":0,"stop_code":2094}},{"type":"Feature","id":269,"geometry":{"type":"Point","coordinates":[-79.883689999999945,43.489950000000078]},"properties":{"OBJECTID":269,"stop_id":"MI2096","stop_name":"Savoline at Hinchey","stop_lat":43.48995,"stop_lon":-79.883690000000001,"wheelchair_boarding":0,"stop_code":2096}},{"type":"Feature","id":270,"geometry":{"type":"Point","coordinates":[-79.885799999999961,43.490620000000035]},"properties":{"OBJECTID":270,"stop_id":"MI2097","stop_name":"Savoline at Landsborough","stop_lat":43.49062,"stop_lon":-79.885800000000003,"wheelchair_boarding":0,"stop_code":2097}},{"type":"Feature","id":271,"geometry":{"type":"Point","coordinates":[-79.88728999999995,43.492930000000058]},"properties":{"OBJECTID":271,"stop_id":"MI2098","stop_name":"Savoline across Peregrine","stop_lat":43.492930000000001,"stop_lon":-79.887289999999993,"wheelchair_boarding":0,"stop_code":2098}},{"type":"Feature","id":272,"geometry":{"type":"Point","coordinates":[-79.889549999999986,43.494740000000036]},"properties":{"OBJECTID":272,"stop_id":"MI2100","stop_name":"Savoline at Pringle","stop_lat":43.49474,"stop_lon":-79.88955,"wheelchair_boarding":0,"stop_code":2100}},{"type":"Feature","id":273,"geometry":{"type":"Point","coordinates":[-79.888519999999971,43.496150000000057]},"properties":{"OBJECTID":273,"stop_id":"MI2101","stop_name":"Pringle at Jelinik","stop_lat":43.49615,"stop_lon":-79.88852,"wheelchair_boarding":0,"stop_code":2101}},{"type":"Feature","id":274,"geometry":{"type":"Point","coordinates":[-79.887039999999956,43.497560000000078]},"properties":{"OBJECTID":274,"stop_id":"MI2102","stop_name":"Pringle at Jelinik","stop_lat":43.49756,"stop_lon":-79.887039999999999,"wheelchair_boarding":0,"stop_code":2102}},{"type":"Feature","id":275,"geometry":{"type":"Point","coordinates":[-79.88612999999998,43.498590000000036]},"properties":{"OBJECTID":275,"stop_id":"MI2103","stop_name":"Pringle at Wrigglesworth","stop_lat":43.49859,"stop_lon":-79.886129999999994,"wheelchair_boarding":0,"stop_code":2103}},{"type":"Feature","id":276,"geometry":{"type":"Point","coordinates":[-79.88436999999999,43.500170000000026]},"properties":{"OBJECTID":276,"stop_id":"MI2104","stop_name":"Scott across Pringle","stop_lat":43.500169999999997,"stop_lon":-79.884370000000004,"wheelchair_boarding":0,"stop_code":2104}},{"type":"Feature","id":277,"geometry":{"type":"Point","coordinates":[-79.886349999999936,43.501000000000033]},"properties":{"OBJECTID":277,"stop_id":"MI2105","stop_name":"Scott at Portch","stop_lat":43.500999999999998,"stop_lon":-79.886349999999993,"wheelchair_boarding":0,"stop_code":2105}},{"type":"Feature","id":278,"geometry":{"type":"Point","coordinates":[-79.88788999999997,43.501970000000028]},"properties":{"OBJECTID":278,"stop_id":"MI2106","stop_name":"Scott at Forbes","stop_lat":43.50197,"stop_lon":-79.887889999999999,"wheelchair_boarding":0,"stop_code":2106}},{"type":"Feature","id":279,"geometry":{"type":"Point","coordinates":[-79.89086999999995,43.50296000000003]},"properties":{"OBJECTID":279,"stop_id":"MI2107","stop_name":"Scott at Kendall","stop_lat":43.502960000000002,"stop_lon":-79.890870000000007,"wheelchair_boarding":0,"stop_code":2107}},{"type":"Feature","id":280,"geometry":{"type":"Point","coordinates":[-79.892139999999984,43.503570000000025]},"properties":{"OBJECTID":280,"stop_id":"MI2108","stop_name":"Scott at Main","stop_lat":43.503570000000003,"stop_lon":-79.892139999999998,"wheelchair_boarding":0,"stop_code":2108}},{"type":"Feature","id":281,"geometry":{"type":"Point","coordinates":[-79.890909999999963,43.50583000000006]},"properties":{"OBJECTID":281,"stop_id":"MI2109","stop_name":"Main at Whitmer","stop_lat":43.505830000000003,"stop_lon":-79.890910000000005,"wheelchair_boarding":0,"stop_code":2109}},{"type":"Feature","id":282,"geometry":{"type":"Point","coordinates":[-79.881019999999978,43.515030000000081]},"properties":{"OBJECTID":282,"stop_id":"MI2110","stop_name":"Main at Fulton","stop_lat":43.515030000000003,"stop_lon":-79.881020000000007,"wheelchair_boarding":0,"stop_code":2110}},{"type":"Feature","id":283,"geometry":{"type":"Point","coordinates":[-79.862139999999954,43.50610000000006]},"properties":{"OBJECTID":283,"stop_id":"MI2175","stop_name":"Derry at Ontario","stop_lat":43.506100000000004,"stop_lon":-79.862139999999997,"wheelchair_boarding":0,"stop_code":2175}},{"type":"Feature","id":284,"geometry":{"type":"Point","coordinates":[-79.865799999999979,43.502770000000055]},"properties":{"OBJECTID":284,"stop_id":"MI2176","stop_name":"Derry at Commercial","stop_lat":43.502769999999998,"stop_lon":-79.865799999999993,"wheelchair_boarding":0,"stop_code":2176}},{"type":"Feature","id":285,"geometry":{"type":"Point","coordinates":[-79.868109999999945,43.500380000000064]},"properties":{"OBJECTID":285,"stop_id":"MI2177","stop_name":"Derry at Farmstead","stop_lat":43.50038,"stop_lon":-79.868110000000001,"wheelchair_boarding":0,"stop_code":2177}},{"type":"Feature","id":286,"geometry":{"type":"Point","coordinates":[-79.870609999999942,43.498160000000041]},"properties":{"OBJECTID":286,"stop_id":"MI2178","stop_name":"Derry at Bronte","stop_lat":43.498159999999999,"stop_lon":-79.870609999999999,"wheelchair_boarding":0,"stop_code":2178}},{"type":"Feature","id":287,"geometry":{"type":"Point","coordinates":[-79.872539999999958,43.496400000000051]},"properties":{"OBJECTID":287,"stop_id":"MI2179","stop_name":"Derry at Bronte","stop_lat":43.496400000000001,"stop_lon":-79.872540000000001,"wheelchair_boarding":0,"stop_code":2179}},{"type":"Feature","id":288,"geometry":{"type":"Point","coordinates":[-79.876539999999977,43.491590000000031]},"properties":{"OBJECTID":288,"stop_id":"MI2180","stop_name":"Scott at Derry","stop_lat":43.491590000000002,"stop_lon":-79.876540000000006,"wheelchair_boarding":0,"stop_code":2180}},{"type":"Feature","id":289,"geometry":{"type":"Point","coordinates":[-79.874789999999962,43.490570000000048]},"properties":{"OBJECTID":289,"stop_id":"MI2181","stop_name":"Scott at McDougall","stop_lat":43.490569999999998,"stop_lon":-79.874790000000004,"wheelchair_boarding":0,"stop_code":2181}},{"type":"Feature","id":290,"geometry":{"type":"Point","coordinates":[-79.87263999999999,43.489270000000033]},"properties":{"OBJECTID":290,"stop_id":"MI2182","stop_name":"Scott at Fennamore","stop_lat":43.489269999999998,"stop_lon":-79.872640000000004,"wheelchair_boarding":0,"stop_code":2182}},{"type":"Feature","id":291,"geometry":{"type":"Point","coordinates":[-79.869839999999954,43.48727000000008]},"properties":{"OBJECTID":291,"stop_id":"MI2183","stop_name":"Scott at Dymott","stop_lat":43.487270000000002,"stop_lon":-79.869839999999996,"wheelchair_boarding":0,"stop_code":2183}},{"type":"Feature","id":292,"geometry":{"type":"Point","coordinates":[-79.870019999999954,43.485760000000028]},"properties":{"OBJECTID":292,"stop_id":"MI2184","stop_name":"Dymott at Fowles","stop_lat":43.485759999999999,"stop_lon":-79.870019999999997,"wheelchair_boarding":0,"stop_code":2184}},{"type":"Feature","id":293,"geometry":{"type":"Point","coordinates":[-79.87027999999998,43.484500000000025]},"properties":{"OBJECTID":293,"stop_id":"MI2185","stop_name":"Dymott at Savoline","stop_lat":43.484499999999997,"stop_lon":-79.870279999999994,"wheelchair_boarding":0,"stop_code":2185}},{"type":"Feature","id":294,"geometry":{"type":"Point","coordinates":[-79.872959999999978,43.484490000000051]},"properties":{"OBJECTID":294,"stop_id":"MI2186","stop_name":"Savoline across Merkley","stop_lat":43.484490000000001,"stop_lon":-79.872960000000006,"wheelchair_boarding":0,"stop_code":2186}},{"type":"Feature","id":295,"geometry":{"type":"Point","coordinates":[-79.876459999999952,43.485540000000071]},"properties":{"OBJECTID":295,"stop_id":"MI2188","stop_name":"Savoline at Potts","stop_lat":43.48554,"stop_lon":-79.876459999999994,"wheelchair_boarding":0,"stop_code":2188}},{"type":"Feature","id":296,"geometry":{"type":"Point","coordinates":[-79.877629999999954,43.486320000000035]},"properties":{"OBJECTID":296,"stop_id":"MI2189","stop_name":"Savoline at McDougall","stop_lat":43.486319999999999,"stop_lon":-79.877629999999996,"wheelchair_boarding":0,"stop_code":2189}},{"type":"Feature","id":297,"geometry":{"type":"Point","coordinates":[-79.880139999999983,43.487950000000069]},"properties":{"OBJECTID":297,"stop_id":"MI2190","stop_name":"Savoline at Derry","stop_lat":43.487949999999998,"stop_lon":-79.880139999999997,"wheelchair_boarding":0,"stop_code":2190}},{"type":"Feature","id":298,"geometry":{"type":"Point","coordinates":[-79.880599999999959,43.488960000000077]},"properties":{"OBJECTID":298,"stop_id":"MI2191","stop_name":"Derry at Savoline","stop_lat":43.488959999999999,"stop_lon":-79.880600000000001,"wheelchair_boarding":0,"stop_code":2191}},{"type":"Feature","id":299,"geometry":{"type":"Point","coordinates":[-79.87931999999995,43.490110000000072]},"properties":{"OBJECTID":299,"stop_id":"MI2192","stop_name":"Derry alongside Rayner","stop_lat":43.490110000000001,"stop_lon":-79.879320000000007,"wheelchair_boarding":0,"stop_code":2192}},{"type":"Feature","id":300,"geometry":{"type":"Point","coordinates":[-79.877439999999979,43.491580000000056]},"properties":{"OBJECTID":300,"stop_id":"MI2193","stop_name":"Derry at Scott","stop_lat":43.491579999999999,"stop_lon":-79.877440000000007,"wheelchair_boarding":0,"stop_code":2193}},{"type":"Feature","id":301,"geometry":{"type":"Point","coordinates":[-79.864659999999958,43.503430000000037]},"properties":{"OBJECTID":301,"stop_id":"MI2195","stop_name":"Derry at Santa Maria","stop_lat":43.503430000000002,"stop_lon":-79.864660000000001,"wheelchair_boarding":0,"stop_code":2195}},{"type":"Feature","id":302,"geometry":{"type":"Point","coordinates":[-79.867169999999987,43.524000000000058]},"properties":{"OBJECTID":302,"stop_id":"MI2203","stop_name":"Milton GO Station","stop_lat":43.524000000000001,"stop_lon":-79.867170000000002,"wheelchair_boarding":0,"stop_code":2203}},{"type":"Feature","id":303,"geometry":{"type":"Point","coordinates":[-79.868259999999964,43.524790000000053]},"properties":{"OBJECTID":303,"stop_id":"MI2019","stop_name":"Drew Centre at Main","stop_lat":43.524790000000003,"stop_lon":-79.868260000000006,"wheelchair_boarding":0,"stop_code":2019}},{"type":"Feature","id":304,"geometry":{"type":"Point","coordinates":[-79.866499999999974,43.523800000000051]},"properties":{"OBJECTID":304,"stop_id":"MI2169","stop_name":"Milton GO Station","stop_lat":43.523800000000001,"stop_lon":-79.866500000000002,"wheelchair_boarding":0,"stop_code":2169}},{"type":"Feature","id":305,"geometry":{"type":"Point","coordinates":[-79.87388999999996,43.517040000000065]},"properties":{"OBJECTID":305,"stop_id":"MI2395","stop_name":"Childs at Ontario","stop_lat":43.517040000000001,"stop_lon":-79.873890000000003,"wheelchair_boarding":0,"stop_code":2395}},{"type":"Feature","id":306,"geometry":{"type":"Point","coordinates":[-79.872569999999939,43.518240000000048]},"properties":{"OBJECTID":306,"stop_id":"MI2396","stop_name":"Childs across Nipissing","stop_lat":43.518239999999999,"stop_lon":-79.872569999999996,"wheelchair_boarding":0,"stop_code":2396}},{"type":"Feature","id":307,"geometry":{"type":"Point","coordinates":[-79.870919999999956,43.518970000000081]},"properties":{"OBJECTID":307,"stop_id":"MI2397","stop_name":"Childs at Satok","stop_lat":43.518970000000003,"stop_lon":-79.870919999999998,"wheelchair_boarding":0,"stop_code":2397}},{"type":"Feature","id":308,"geometry":{"type":"Point","coordinates":[-79.866909999999962,43.519240000000025]},"properties":{"OBJECTID":308,"stop_id":"MI2398","stop_name":"Childs at Ledwith","stop_lat":43.519240000000003,"stop_lon":-79.866910000000004,"wheelchair_boarding":0,"stop_code":2398}},{"type":"Feature","id":309,"geometry":{"type":"Point","coordinates":[-79.863179999999943,43.521740000000079]},"properties":{"OBJECTID":309,"stop_id":"MI2399","stop_name":"Childs at Coxe","stop_lat":43.521740000000001,"stop_lon":-79.86318,"wheelchair_boarding":0,"stop_code":2399}},{"type":"Feature","id":310,"geometry":{"type":"Point","coordinates":[-79.853069999999946,43.51449000000008]},"properties":{"OBJECTID":310,"stop_id":"MI2170","stop_name":"Derry opposite Brothers","stop_lat":43.514490000000002,"stop_lon":-79.853070000000002,"wheelchair_boarding":0,"stop_code":2170}},{"type":"Feature","id":311,"geometry":{"type":"Point","coordinates":[-79.855959999999982,43.511690000000044]},"properties":{"OBJECTID":311,"stop_id":"MI2172","stop_name":"Derry at Holly","stop_lat":43.511690000000002,"stop_lon":-79.855959999999996,"wheelchair_boarding":0,"stop_code":2172}},{"type":"Feature","id":312,"geometry":{"type":"Point","coordinates":[-79.85734999999994,43.510410000000036]},"properties":{"OBJECTID":312,"stop_id":"MI2173","stop_name":"Derry Road opposite Cargill","stop_lat":43.51041,"stop_lon":-79.857349999999997,"wheelchair_boarding":0,"stop_code":2173}},{"type":"Feature","id":313,"geometry":{"type":"Point","coordinates":[-79.860849999999971,43.506880000000081]},"properties":{"OBJECTID":313,"stop_id":"MI2197","stop_name":"Derry at Ontario","stop_lat":43.506880000000002,"stop_lon":-79.860849999999999,"wheelchair_boarding":0,"stop_code":2197}},{"type":"Feature","id":314,"geometry":{"type":"Point","coordinates":[-79.857339999999965,43.510050000000035]},"properties":{"OBJECTID":314,"stop_id":"MI2199","stop_name":"Derry alongside Cargill","stop_lat":43.51005,"stop_lon":-79.857339999999994,"wheelchair_boarding":0,"stop_code":2199}},{"type":"Feature","id":315,"geometry":{"type":"Point","coordinates":[-79.856119999999976,43.511180000000081]},"properties":{"OBJECTID":315,"stop_id":"MI2200","stop_name":"Derry at Holly","stop_lat":43.511180000000003,"stop_lon":-79.856120000000004,"wheelchair_boarding":0,"stop_code":2200}},{"type":"Feature","id":316,"geometry":{"type":"Point","coordinates":[-79.852959999999939,43.514180000000067]},"properties":{"OBJECTID":316,"stop_id":"MI2202","stop_name":"Derry alongside Brothers","stop_lat":43.514180000000003,"stop_lon":-79.852959999999996,"wheelchair_boarding":0,"stop_code":2202}},{"type":"Feature","id":317,"geometry":{"type":"Point","coordinates":[-79.876319999999964,43.517330000000072]},"properties":{"OBJECTID":317,"stop_id":"MI2380","stop_name":"Ontario at Pine","stop_lat":43.517330000000001,"stop_lon":-79.876320000000007,"wheelchair_boarding":0,"stop_code":2380}},{"type":"Feature","id":318,"geometry":{"type":"Point","coordinates":[-79.862719999999968,43.507190000000037]},"properties":{"OBJECTID":318,"stop_id":"MI2245","stop_name":"Ontario at Laurier","stop_lat":43.507190000000001,"stop_lon":-79.862719999999996,"wheelchair_boarding":0,"stop_code":2245}},{"type":"Feature","id":319,"geometry":{"type":"Point","coordinates":[-79.862959999999987,43.507710000000031]},"properties":{"OBJECTID":319,"stop_id":"MI2265","stop_name":"Ontario at Laurier","stop_lat":43.507710000000003,"stop_lon":-79.862960000000001,"wheelchair_boarding":0,"stop_code":2265}},{"type":"Feature","id":320,"geometry":{"type":"Point","coordinates":[-79.875649999999951,43.517130000000066]},"properties":{"OBJECTID":320,"stop_id":"MI2119","stop_name":"Ontario across Pine","stop_lat":43.517130000000002,"stop_lon":-79.875649999999993,"wheelchair_boarding":0,"stop_code":2119}},{"type":"Feature","id":321,"geometry":{"type":"Point","coordinates":[-79.848539999999957,43.496740000000045]},"properties":{"OBJECTID":321,"stop_id":"MI2390","stop_name":"Regional Road 25 at Louis St Laurent","stop_lat":43.496740000000003,"stop_lon":-79.84854,"wheelchair_boarding":0,"stop_code":2390}},{"type":"Feature","id":322,"geometry":{"type":"Point","coordinates":[-79.839459999999974,43.48780000000005]},"properties":{"OBJECTID":322,"stop_id":"MI2391","stop_name":"Etheridge at Orr","stop_lat":43.4878,"stop_lon":-79.839460000000003,"wheelchair_boarding":0,"stop_code":2391}},{"type":"Feature","id":323,"geometry":{"type":"Point","coordinates":[-79.840929999999958,43.486480000000029]},"properties":{"OBJECTID":323,"stop_id":"MI2392","stop_name":"Etheridge at Farmstead","stop_lat":43.48648,"stop_lon":-79.84093,"wheelchair_boarding":0,"stop_code":2392}},{"type":"Feature","id":324,"geometry":{"type":"Point","coordinates":[-79.838909999999942,43.484520000000032]},"properties":{"OBJECTID":324,"stop_id":"MI2393","stop_name":"Farmstead at Britannia","stop_lat":43.484520000000003,"stop_lon":-79.838909999999998,"wheelchair_boarding":0,"stop_code":2393}},{"type":"Feature","id":325,"geometry":{"type":"Point","coordinates":[-79.847459999999955,43.49628000000007]},"properties":{"OBJECTID":325,"stop_id":"MI2394","stop_name":"Regional Road 25 at Louis St Laurent","stop_lat":43.496279999999999,"stop_lon":-79.847459999999998,"wheelchair_boarding":0,"stop_code":2394}},{"type":"Feature","id":326,"geometry":{"type":"Point","coordinates":[-79.843589999999949,43.519290000000069]},"properties":{"OBJECTID":326,"stop_id":"MI2404","stop_name":"Ferguson at Armstrong","stop_lat":43.519289999999998,"stop_lon":-79.843590000000006,"wheelchair_boarding":0,"stop_code":2404}},{"type":"Feature","id":327,"geometry":{"type":"Point","coordinates":[-79.858269999999948,43.487390000000062]},"properties":{"OBJECTID":327,"stop_id":"MI2389","stop_name":"Louis St Laurent at Bronte","stop_lat":43.487389999999998,"stop_lon":-79.858270000000005,"wheelchair_boarding":0,"stop_code":2389}},{"type":"Feature","id":328,"geometry":{"type":"Point","coordinates":[-79.86943999999994,43.507440000000031]},"properties":{"OBJECTID":328,"stop_id":"MI2400","stop_name":"Commercial at Williams","stop_lat":43.507440000000003,"stop_lon":-79.869439999999997,"wheelchair_boarding":0,"stop_code":2400}},{"type":"Feature","id":329,"geometry":{"type":"Point","coordinates":[-79.847629999999981,43.50305000000003]},"properties":{"OBJECTID":329,"stop_id":"MI2402","stop_name":"Yates at Hepburn","stop_lat":43.503050000000002,"stop_lon":-79.847629999999995,"wheelchair_boarding":0,"stop_code":2402}},{"type":"Feature","id":330,"geometry":{"type":"Point","coordinates":[-79.847049999999967,43.508390000000077]},"properties":{"OBJECTID":330,"stop_id":"MI6110","stop_name":"Clark at Connors Landing","stop_lat":43.508389999999999,"stop_lon":-79.847049999999996,"wheelchair_boarding":0,"stop_code":6110}},{"type":"Feature","id":331,"geometry":{"type":"Point","coordinates":[-79.828919999999982,43.513990000000035]},"properties":{"OBJECTID":331,"stop_id":"MI2401","stop_name":"Craig Keilburger Secondary School","stop_lat":43.51399,"stop_lon":-79.828919999999997,"wheelchair_boarding":0,"stop_code":2401}},{"type":"Feature","id":332,"geometry":{"type":"Point","coordinates":[-79.860359999999957,43.507740000000069]},"properties":{"OBJECTID":332,"stop_id":"MI2121","stop_name":"Derry Centre Plaza","stop_lat":43.507739999999998,"stop_lon":-79.86036,"wheelchair_boarding":0,"stop_code":2121}},{"type":"Feature","id":333,"geometry":{"type":"Point","coordinates":[-79.855019999999968,43.490450000000067]},"properties":{"OBJECTID":333,"stop_id":"MI2414","stop_name":"Louis St Laurent at Farmstead","stop_lat":43.490450000000003,"stop_lon":-79.855019999999996,"wheelchair_boarding":0,"stop_code":2414}},{"type":"Feature","id":334,"geometry":{"type":"Point","coordinates":[-79.85716999999994,43.488360000000057]},"properties":{"OBJECTID":334,"stop_id":"MI2415","stop_name":"Milton Marketplaces  Sobeys","stop_lat":43.48836,"stop_lon":-79.857169999999996,"wheelchair_boarding":0,"stop_code":2415}},{"type":"Feature","id":335,"geometry":{"type":"Point","coordinates":[-79.847339999999974,43.480840000000057]},"properties":{"OBJECTID":335,"stop_id":"MI2416","stop_name":"Etheridge at Chretian","stop_lat":43.480840000000001,"stop_lon":-79.847340000000003,"wheelchair_boarding":0,"stop_code":2416}},{"type":"Feature","id":336,"geometry":{"type":"Point","coordinates":[-79.846389999999985,43.481570000000033]},"properties":{"OBJECTID":336,"stop_id":"MI2417","stop_name":"Etheridge at Devine","stop_lat":43.481569999999998,"stop_lon":-79.84639,"wheelchair_boarding":0,"stop_code":2417}},{"type":"Feature","id":337,"geometry":{"type":"Point","coordinates":[-79.855559999999969,43.484510000000057]},"properties":{"OBJECTID":337,"stop_id":"MI2424","stop_name":"Bronte alongside Lemieux","stop_lat":43.48451,"stop_lon":-79.855559999999997,"wheelchair_boarding":0,"stop_code":2424}},{"type":"Feature","id":338,"geometry":{"type":"Point","coordinates":[-79.858079999999973,43.486370000000079]},"properties":{"OBJECTID":338,"stop_id":"MI2425","stop_name":"St Francis Xavier Catholic Secondary School","stop_lat":43.486370000000001,"stop_lon":-79.858080000000001,"wheelchair_boarding":0,"stop_code":2425}},{"type":"Feature","id":339,"geometry":{"type":"Point","coordinates":[-79.873399999999947,43.497830000000079]},"properties":{"OBJECTID":339,"stop_id":"MI2431","stop_name":"Derry Heights Plaza","stop_lat":43.49783,"stop_lon":-79.873400000000004,"wheelchair_boarding":0,"stop_code":2431}},{"type":"Feature","id":340,"geometry":{"type":"Point","coordinates":[-79.875679999999988,43.499560000000031]},"properties":{"OBJECTID":340,"stop_id":"MI2432","stop_name":"Bronte at Laurier","stop_lat":43.499560000000002,"stop_lon":-79.875680000000003,"wheelchair_boarding":0,"stop_code":2432}},{"type":"Feature","id":341,"geometry":{"type":"Point","coordinates":[-79.877579999999966,43.500950000000046]},"properties":{"OBJECTID":341,"stop_id":"MI2433","stop_name":"Bronte at Anne","stop_lat":43.500950000000003,"stop_lon":-79.877579999999995,"wheelchair_boarding":0,"stop_code":2433}},